{"program":"Chile","fetchedAt":"2026-07-07T16:02:16.369Z","coord":{"lat":-33.4489,"lon":-70.6693,"radiusKm":45},"places":[{"id":84,"lat":-33.4540838,"lon":-70.633775,"icon":"storefront","name":"tiendasatoshi","opening_hours":"24/7","created_at":"2022-09-25T08:45:08Z","updated_at":"2025-09-18T05:36:30.597Z","verified_at":"2022-09-23T00:00:00Z","osm_id":"node:10047318509","website":"https://linktr.ee/tiendasatoshi","description":"Official #Trezor Reseller in Chile 🇨🇱  |  Resellers de Hardware Wallets y Merchandising cripto 🛍  |  #Bitcoin"},{"id":758,"lat":-33.4670968,"lon":-70.7095209,"icon":"local_pizza","name":"Basilico Pizzería","address":"451 El Escorial Estación Central","created_at":"2022-10-26T08:51:33Z","updated_at":"2026-05-08T20:22:47.481Z","verified_at":"2023-11-30T00:00:00Z","osm_id":"node:10129829836","phone":"+56 9 3053 5922"},{"id":6728,"lat":-33.5937286,"lon":-70.5786451,"icon":"computer","name":"AraucoNET","address":"Concha y toro 2035 Santiago","created_at":"2022-09-25T08:45:08Z","updated_at":"2025-09-18T05:36:30.732Z","verified_at":"2023-01-28T00:00:00Z","osm_id":"node:2534676337","website":"http://www.arauconet.cl/"},{"id":16653,"lat":-33.3954038,"lon":-70.5051957,"icon":"local_cafe","name":"El Distrito Cafetería","address":"1250 Avenida La Plaza Las Condes","created_at":"2023-12-04T10:21:00.876Z","updated_at":"2025-09-18T05:36:31.521Z","verified_at":"2023-12-04T00:00:00Z","osm_id":"node:11393781810","phone":"+56983388842","website":"https://eldistrito.cl/","boosted_until":"2024-10-08T13:55:16.975922299Z"},{"id":16673,"lat":-33.4482305,"lon":-70.5831147,"icon":"restaurant","name":"Il Panccini","address":"4576 Avenida Simón Bolívar Ñuñoa","created_at":"2023-12-05T16:01:21.281Z","updated_at":"2025-09-18T05:36:33.293Z","verified_at":"2023-12-05T00:00:00Z","osm_id":"node:11396334907","phone":"+56932958190","website":"https://ilpanccini.cl/"},{"id":16964,"lat":-33.442342,"lon":-70.6556907,"icon":"restaurant","name":"Blue Jar","address":"102 Profesora Amanda Labarca Santiago","opening_hours":"Mo-Fr 08:00-20:00","created_at":"2023-12-21T17:40:48.648Z","updated_at":"2025-09-18T05:36:31.587Z","verified_at":"2023-12-21T00:00:00Z","osm_id":"node:3728172668","phone":"+56961554650","website":"https://www.bluejar.cl/"},{"id":16968,"lat":-33.4146681,"lon":-70.5407215,"icon":"local_atm","name":"Unnamed","address":"875 Avenida Padre Hurtado Sur Las Condes","created_at":"2023-12-21T18:31:18.861Z","updated_at":"2025-09-18T05:36:31.588Z","verified_at":"2023-12-21T00:00:00Z","osm_id":"node:11439356887"},{"id":17037,"lat":-33.382024599999994,"lon":-70.54598204999999,"icon":"storefront","name":"Big Trail","address":"9315 Avenida Vitacura Vitacura","created_at":"2023-12-29T23:31:03.205Z","updated_at":"2025-09-18T05:36:31.687Z","verified_at":"2023-12-29T00:00:00Z","osm_id":"way:446195453","phone":"+56985538668","website":"https://www.bigtrail.cl/"},{"id":17316,"lat":-33.4139689,"lon":-70.582845,"icon":"restaurant","name":"Crepe Station","address":"4501 Avenida Apoquindo Las Condes","opening_hours":"Mo-Su 08:00-18:00","created_at":"2024-01-05T16:41:19.947Z","updated_at":"2026-01-22T13:22:41.538Z","verified_at":"2026-01-22T00:00:00Z","osm_id":"node:11492116671","phone":"+56222071921","boosted_until":"2024-10-07T08:45:05.374388239Z"},{"id":17371,"lat":-33.4219741,"lon":-70.60286,"icon":"local_cafe","name":"Oggi Gelato","address":"310 Avenida Holanda Providencia 7500000","comments":1,"created_at":"2024-01-10T22:31:18.782Z","updated_at":"2026-05-08T00:05:06.299Z","verified_at":"2025-05-08T00:00:00Z","osm_id":"node:11506831944","phone":"+56229294215","website":"https://www.oggigelato.cl/"},{"id":18751,"lat":-33.7158359,"lon":-70.90863454999999,"icon":"pool","name":"Parque Oasis","address":"31 Las Parcelas Isla de Maipo","opening_hours":"Mo-Su 09:00-21:00","created_at":"2024-04-09T12:51:49.206Z","updated_at":"2025-09-18T05:36:32.783Z","verified_at":"2024-04-08T00:00:00Z","osm_id":"way:243006436","website":"https://www.parqueoasis.cl/"},{"id":19848,"lat":-33.4155415,"lon":-70.5402298,"icon":"local_atm","name":"Bitcoin ATM - Shitcoins.club","address":"875 Avenida Padre Hurtado Sur Las Condes 7571626","opening_hours":"Mo-Sa 10:00-21:00; Su 11:00-20:00","created_at":"2024-06-19T20:31:44.506Z","updated_at":"2025-09-18T05:36:33.741Z","verified_at":"2024-06-19T00:00:00Z","osm_id":"node:11992747662","website":"https://shitcoins.club/localizacion-atm-chile/bitcoin-atm-santiago-las_condes","twitter":"https://twitter.com/BitomatCom","facebook":"https://www.facebook.com/shitcoins.club","instagram":"https://www.instagram.com/shitcoinsclub","email":"support@shitcoins.club"},{"id":19849,"lat":-33.4526959,"lon":-70.6823069,"icon":"local_atm","name":"Bitcoin ATM - Shitcoins.club","address":"3470 Avenida Alameda Libertador Bernardo O'Higgins Santiago 9160000","opening_hours":"Mo-Sa 10:00-21:00; Su 11:00-20:00","created_at":"2024-06-19T20:41:37.819Z","updated_at":"2025-09-18T05:36:33.741Z","verified_at":"2024-06-19T00:00:00Z","osm_id":"node:11992764117","website":"https://shitcoins.club/","twitter":"https://twitter.com/BitomatCom","facebook":"https://www.facebook.com/shitcoins.club","instagram":"https://www.instagram.com/shitcoinsclub","email":"support@shitcoins.club"},{"id":19850,"lat":-33.5170577,"lon":-70.5969582,"icon":"local_atm","name":"Bitcoin ATM - Shitcoins.club","address":"7110 Avenida Vicuña Mackenna Oriente La Florida 8240000","opening_hours":"Mo-Sa 10:00-21:00; Su 11:00-20:00","created_at":"2024-06-19T20:51:37.833Z","updated_at":"2025-09-18T05:36:33.743Z","verified_at":"2024-06-19T00:00:00Z","osm_id":"node:11992776282","website":"https://shitcoins.club/localizacion-atm-chile/bitcoin-atm-santiago-mallplaza_vespucio","twitter":"https://twitter.com/BitomatCom","facebook":"https://www.facebook.com/shitcoins.club","instagram":"https://www.instagram.com/shitcoinsclub","email":"support@shitcoins.club"},{"id":32866,"lat":-33.3800697,"lon":-70.537683,"icon":"storefront","name":"Atakama Outdoor","address":"1482 Avenida Tabancura Vitacura 7650041","opening_hours":"Mo-Th 09:00-19:00; Fr 09:00-18:00; Sa 11:00-16:00","created_at":"2025-12-26T18:42:43.584Z","updated_at":"2025-12-26T18:42:43.586Z","verified_at":"2025-12-26T00:00:00Z","osm_id":"node:13409192650","phone":"+56 9 9079 2022","website":"https://atakamaoutdoor.cl/","facebook":"https://www.facebook.com/people/Atakama_Outdoor/100076367765117/","instagram":"https://www.instagram.com/atakama_outdoor/","email":"hola@atakamaoutdoor.cl"}],"areas":[{"id":569,"name":"Santiago de Chile","type":"community","url_alias":"santiago-de-chile","icon":"https://static.btcmap.org/images/communities/santiago-de-chile.png","website_url":"https://btcmap.org/community/santiago-de-chile"},{"id":200,"name":"Chile","type":"country","url_alias":"cl","icon":"https://static.btcmap.org/images/countries/cl.svg","website_url":"https://btcmap.org/country/cl"}]}