{"program":"Latvia","fetchedAt":"2026-07-07T16:02:22.567Z","coord":{"lat":56.9496,"lon":24.1052,"radiusKm":35},"places":[{"id":5091,"lat":56.9583466,"lon":24.1216032,"icon":"local_bar","name":"Basement","address":"33 Baznīcas iela Rīga LV-1010","opening_hours":"We-Sa 17:00-03:00","comments":2,"created_at":"2023-08-25T20:00:44.095Z","updated_at":"2026-05-10T00:05:05.747Z","verified_at":"2025-08-07T00:00:00Z","osm_id":"node:11144623602","phone":"+371 673 13 223","boosted_until":"2026-05-02T19:09:18.192374627Z"},{"id":9770,"lat":56.9222608,"lon":23.9795191,"icon":"luggage","name":"airBaltic","address":"Lidosta \"Rīga\" LV-1053","opening_hours":"Mo-Su 05:00-23:00","created_at":"2022-09-25T08:45:08Z","updated_at":"2026-02-06T09:02:55.589Z","verified_at":"2023-09-16T00:00:00Z","osm_id":"node:2974438059","phone":"+371 6 7207069","website":"https://airbaltic.com/","description":"Bitcoin payment option is only available for GREEN and GREEN plus tickets for flights booked at least five days ahead of the scheduled departure."},{"id":16979,"lat":56.98309715,"lon":24.2045125,"icon":"local_movies","name":"Cinamon","address":"372 Brīvības gatve Rīga LV-1006","opening_hours":"Mo-Su 10:00-22:30","created_at":"2023-12-23T14:01:04.817Z","updated_at":"2026-02-12T00:05:06.159Z","verified_at":"2025-02-12T00:00:00Z","osm_id":"way:1233522453","phone":"1189","website":"https://cinamonkino.com/alfa/lv","email":"alfa@cinamonkino.com"},{"id":18691,"lat":56.9644738,"lon":24.1382194,"icon":"currency_exchange","name":"AltePay crypto","address":"9 k-1 Cēsu iela Rīga LV-1012","opening_hours":"Mo-Fr 09:00-19:00","created_at":"2024-04-02T22:01:10.084Z","updated_at":"2025-09-18T05:36:33.451Z","verified_at":"2024-04-02T00:00:00Z","osm_id":"node:11012119607","phone":"+371 27 746 622"},{"id":21930,"lat":56.9578097,"lon":24.1389574,"icon":"local_bar","name":"Crazy Dog","address":"101 Aleksandra Čaka iela Rīga LV-1011","opening_hours":"We-Th 11:00-20:00; Fr 11:00-23:00; Sa-Su 12:00-22:00","comments":1,"created_at":"2024-11-29T13:11:37.224Z","updated_at":"2026-06-06T00:05:06.444Z","verified_at":"2025-09-03T00:00:00Z","osm_id":"node:4365038892","phone":"+371 23 472 775","website":"https://www.facebook.com/crazydogbar","email":"crazydogfood@outlook.com"},{"id":24635,"lat":56.8196355,"lon":24.6093373,"icon":"local_cafe","name":"Štoka Pica / Kafejnīca Trombons","address":"50 Brīvības iela Ogre LV-5001","opening_hours":"Mo-Th 10:00-21:00; Fr,Sa 10:00-23:00; Su 10:00-21:00","created_at":"2025-03-26T06:01:07.195Z","updated_at":"2026-04-01T18:42:58.179Z","verified_at":"2026-04-01T00:00:00Z","osm_id":"node:5124345638","phone":"+371 27 086 575","website":"https://www.stokapica.lv/","email":"stokapica@inbox.lv"}],"areas":[{"id":452,"name":"Latvia","type":"country","url_alias":"lv","icon":"https://static.btcmap.org/images/countries/lv.svg","website_url":"https://btcmap.org/country/lv"}]}