{"program":"Panama","fetchedAt":"2026-07-07T16:02:10.427Z","coord":{"lat":8.9824,"lon":-79.5199,"radiusKm":40},"places":[{"id":888,"lat":8.9814885,"lon":-79.5206148,"icon":"balance","name":"Kraemer & Kraemer","address":"Calle 53 Este Panama","opening_hours":"Mo-Fr 09:00-17:00","created_at":"2022-10-29T10:21:31Z","updated_at":"2026-02-05T01:12:36.263Z","verified_at":"2026-02-04T00:00:00Z","osm_id":"node:10137472107","phone":"+507 310 8668","website":"https://kraemerlaw.com/","facebook":"https://www.facebook.com/Kraemerlaw/","email":"info@kraemerlaw.com","description":"Kraemer & Kraemer, Panama Law Firm and Attorneys-At-Law, offers legal services in Business, Tax, Real Estate, Immigration Law, Asset Protection, and Trademark Registration."},{"id":1038,"lat":8.9801429,"lon":-79.5240711,"icon":"currency_exchange","name":"Torero Coin","address":"Calle 50 Ciudad de Panamá","opening_hours":"Mo-Fr 10:00-18:00","created_at":"2022-11-03T12:41:50Z","updated_at":"2026-04-05T05:23:26.783Z","verified_at":"2026-04-05T00:00:00Z","osm_id":"node:10154552662","phone":"+507 6323-1992","website":"https://www.torerocoin.com/","instagram":"https://www.instagram.com/torerocoin/","email":"info@torerocoin.com"},{"id":2028,"lat":8.9637132,"lon":-79.5356398,"icon":"business","name":"Maven","opening_hours":"24/7","created_at":"2022-11-24T14:31:53Z","updated_at":"2025-09-18T05:36:35.333Z","verified_at":"2022-11-24T00:00:00Z","osm_id":"node:10214780333","website":"https://www.mavennft.io/"},{"id":15484,"lat":8.9825974,"lon":-79.5247345,"icon":"currency_exchange","name":"Inmonex","address":"Calle Ricardo Arias Ciudad de Panamá","opening_hours":"Mo-Fr 09:00-19:00; Sa 09:00-16:00","created_at":"2022-11-30T07:11:53Z","updated_at":"2025-11-20T13:12:41.608Z","verified_at":"2025-10-22T00:00:00Z","osm_id":"way:382362288","phone":"+507 263-9400","website":"https://inmonexpa.com/","email":"inmonexpa@gmail.com"},{"id":17333,"lat":8.9833116,"lon":-79.5253283,"icon":"local_atm","name":"Bitcoin ATM","opening_hours":"Mo-Su 08:00-23:00","created_at":"2024-01-06T23:21:00.25Z","updated_at":"2025-09-18T05:36:31.746Z","verified_at":"2024-01-06T00:00:00Z","osm_id":"node:11495623951"},{"id":17334,"lat":8.9846583,"lon":-79.5261002,"icon":"local_atm","name":"Bitcoin ATM","created_at":"2024-01-06T23:41:04.196Z","updated_at":"2025-09-18T05:36:31.775Z","verified_at":"2024-01-06T00:00:00Z","osm_id":"node:11495715038"},{"id":17336,"lat":8.9885129,"lon":-79.5242652,"icon":"local_atm","name":"Bitcoin ATM","created_at":"2024-01-07T03:51:09.734Z","updated_at":"2025-09-18T05:36:31.746Z","verified_at":"2024-01-06T00:00:00Z","osm_id":"node:11496066935"},{"id":17337,"lat":8.9888973,"lon":-79.5250339,"icon":"local_atm","name":"Bitcoin ATM","created_at":"2024-01-07T04:11:00.443Z","updated_at":"2025-09-18T05:36:31.746Z","verified_at":"2024-01-06T00:00:00Z","osm_id":"node:11496071302"},{"id":17364,"lat":9.0127996,"lon":-79.5216982,"icon":"computer","name":"BannerLand Panama","address":"Avenida La Paz Panamá","opening_hours":"Mo-Fr 09:00-17:00; Sa 10:00-14:00","created_at":"2024-01-09T20:00:53.732Z","updated_at":"2025-09-18T05:36:31.769Z","verified_at":"2024-01-09T00:00:00Z","osm_id":"node:4775864354","phone":"+50 76 616 6658","website":"https://bannerlandpty.com/","twitter":"https://twitter.com/Bannerland_pa","facebook":"https://www.facebook.com/BannerlandPanama","instagram":"https://www.instagram.com/bannerlandpanama/","email":"gerenciabannerland@gmail.com"},{"id":17578,"lat":9.0676501,"lon":-79.3869497,"icon":"local_atm","name":"Paralla Bitcoin ATM","opening_hours":"24/7","created_at":"2024-01-23T02:50:59.992Z","updated_at":"2026-03-12T18:23:00.696Z","verified_at":"2024-01-22T00:00:00Z","osm_id":"node:11541936824","email":"info@paralla.tech"},{"id":17672,"lat":8.967683,"lon":-79.5328675,"icon":"local_atm","name":"Bitcoin ATM - La Boqueria","opening_hours":"Mo-Sa 06:30-21:00; Su 08:00-17:00","created_at":"2024-01-30T20:11:06.449Z","updated_at":"2025-09-18T05:36:31.868Z","verified_at":"2024-01-30T00:00:00Z","osm_id":"node:11570631519","phone":"+507 6410-4364","email":"info@paralla.tech"},{"id":20298,"lat":9.0662618,"lon":-79.3874988,"icon":"local_atm","name":"Paralla Bitcoin ATM","opening_hours":"24/7","created_at":"2024-07-28T00:01:36.84Z","updated_at":"2026-07-07T00:07:21.854Z","verified_at":"2025-10-04T00:00:00Z","osm_id":"node:12077614438","email":"info@paralla.tech"},{"id":20299,"lat":9.0635234,"lon":-79.3902234,"icon":"local_atm","name":"Paralla Bitcoin ATM","opening_hours":"24/7","created_at":"2024-07-28T00:01:37.216Z","updated_at":"2026-03-12T18:23:01.677Z","verified_at":"2024-07-27T00:00:00Z","osm_id":"node:12077614439","email":"info@paralla.tech"},{"id":20300,"lat":9.0629812,"lon":-79.3897432,"icon":"local_atm","name":"Paralla Bitcoin ATM","opening_hours":"24/7","created_at":"2024-07-28T00:01:37.622Z","updated_at":"2026-07-07T00:07:21.856Z","verified_at":"2025-10-04T00:00:00Z","osm_id":"node:12077614440","email":"info@paralla.tech"},{"id":23855,"lat":8.9788728,"lon":-79.5258188,"icon":"local_atm","name":"Cryptomatic Bitcoin ATM","created_at":"2025-02-13T08:51:39.749Z","updated_at":"2026-02-12T00:05:06.151Z","verified_at":"2025-02-12T00:00:00Z","osm_id":"node:12584607921"},{"id":24120,"lat":8.9798132,"lon":-79.5154878,"icon":"storefront","name":"Cava","address":"Sunset Strip, L128 Avenida Israel Ciudad de Panamá","opening_hours":"Mo-Fr 10:00-19:00; Sa 10:00-16:00; PH off","created_at":"2025-02-25T03:40:59.131Z","updated_at":"2025-10-06T16:02:19.222Z","verified_at":null,"osm_id":"node:12607335468","phone":"+507 2104232","website":"https://www.cava-co.com","email":"pedidos@cava-co.com"},{"id":24263,"lat":8.9828858,"lon":-79.5249502,"icon":"currency_exchange","name":"Eurocash","opening_hours":"Mo-Fr 09:00-19:00; Sa 09:00-14:00","created_at":"2025-03-04T15:11:44.418Z","updated_at":"2025-09-18T05:36:29.673Z","verified_at":null,"osm_id":"node:12636067201","phone":"+507 387-7008"},{"id":28238,"lat":8.9746636,"lon":-79.5295414,"icon":"colorize","name":"Falena Studio","address":"PH Colores de Bella Vista Calle 43 Ciudad de Panamá 0843","opening_hours":"Th-Tu 11:00-19:00; Su 09:00-15:00","created_at":"2025-08-05T22:21:59.495Z","updated_at":"2026-05-08T00:05:05.649Z","verified_at":"2025-08-05T00:00:00Z","osm_id":"node:13051019460","phone":"+507 65491129","website":"https://www.instagram.com/falenastudio_/"},{"id":28556,"lat":8.9752268,"lon":-79.5069188,"icon":"local_atm","name":"ATM - CryptoMatic","opening_hours":"Mo-Su 08:00-23:00","created_at":"2025-08-29T23:31:55.776Z","updated_at":"2026-05-23T18:23:16.568Z","verified_at":"2026-05-23T00:00:00Z","osm_id":"node:13107966110"},{"id":29345,"lat":9.0139712,"lon":-79.5211383,"icon":"storefront","name":"Green Wellness Market Panamá","address":"Calle 11 C Norte Panamá","created_at":"2025-10-23T21:22:33.198Z","updated_at":"2025-10-23T21:22:33.201Z","verified_at":"2025-10-23T00:00:00Z","osm_id":"node:13253044704"},{"id":30901,"lat":9.0126884,"lon":-79.4938599,"icon":"celebration","name":"Magnishow","address":"4 Calle W Panama City","opening_hours":"Mo-Th 09:00-17:00; Fr 09:00-15:00","created_at":"2025-11-21T00:52:17.872Z","updated_at":"2025-11-24T11:12:09.826Z","verified_at":"2025-11-21T00:00:00Z","osm_id":"node:13320408238","phone":"+507 657 06104","website":"https://magnishowpanama.com/"},{"id":31492,"lat":8.9519349,"lon":-79.5323419,"icon":"card_giftcard","name":"Fina - Guna Yala Gift Shop","address":"Calle Central Panamá","opening_hours":"Mo-Su 10:00-20:00","created_at":"2025-11-29T17:32:37.488Z","updated_at":"2025-11-29T17:57:53.065Z","verified_at":"2025-11-29T00:00:00Z","osm_id":"node:13340782581","boosted_until":"2025-12-29T17:57:53.065638702Z"},{"id":31944,"lat":8.9507682,"lon":-79.5323662,"icon":"palette","name":"Galeria Indigena","address":"844 Calle 1 Oeste Panamá","opening_hours":"Mo-Su 09:00-19:00","created_at":"2025-12-07T23:22:06.627Z","updated_at":"2025-12-07T23:22:06.63Z","verified_at":"2025-12-07T00:00:00Z","osm_id":"node:3914990854","phone":"+507 6885 1583"},{"id":34384,"lat":8.9828907,"lon":-79.5184857,"icon":"business","name":"Veritas Villages","address":"31D Calle 50 Panamá 0000","opening_hours":"Mo-Fr 08:00-17:00","created_at":"2026-01-29T13:43:18.136Z","updated_at":"2026-02-24T14:03:12.668Z","verified_at":"2026-02-08T00:00:00Z","osm_id":"node:13509445746","phone":"+5077864001888","website":"https://www.veritasvillages.com/","email":"info@VeritasVillages.com","description":"Office of Autris, the developer of the Veritas Villages freedom and sustainability-oriented residential communities"},{"id":39254,"lat":8.9771607,"lon":-79.5518863,"icon":"currency_exchange","name":"BitBase","opening_hours":"Mo-Th 10:00-20:00; Fr-Sa 10:00-21:00; Su 10:30-19:00","created_at":"2026-04-23T23:05:13.583Z","updated_at":"2026-04-23T23:05:13.593Z","verified_at":"2026-04-23T00:00:00Z","osm_id":"node:13757148687","phone":"+507 6735 9321","website":"https://www.bitbase.com.pa/tienda-bitcoin/panama","email":"panama@bitbase.lat"}],"areas":[{"id":520,"name":"Panama","type":"country","url_alias":"pa","icon":"https://static.btcmap.org/images/countries/pa.svg","website_url":"https://btcmap.org/country/pa"}]}