{"program":"Singapore","fetchedAt":"2026-07-07T16:02:09.178Z","coord":{"lat":1.3521,"lon":103.8198,"radiusKm":35},"places":[{"id":1047,"lat":1.2967532,"lon":103.854601,"icon":"business","name":"Rabbit Pte. Ltd.","address":"410 North Bridge Road Singapore 188726","created_at":"2022-11-04T13:11:42Z","updated_at":"2026-01-11T07:13:03.482Z","verified_at":"2022-11-04T00:00:00Z","osm_id":"node:10156961264","phone":"+65 6407 7488","website":"https://www.rabbit.com.sg/","twitter":"https://twitter.com/showrabbit","facebook":"https://www.facebook.com/showrabbit","email":"show@rabbit.com.sg"},{"id":1068,"lat":1.2922924,"lon":103.8598055,"icon":"storefront","name":"Silver Bullion Pte Ltd","address":"Raffles Boulevard Singapore 039596","created_at":"2022-11-06T19:41:39Z","updated_at":"2025-09-18T05:36:30.613Z","verified_at":"2022-11-06T00:00:00Z","osm_id":"node:10162798341","phone":"+6561003040","website":"https://www.silverbullion.com.sg/","email":"sales@silverbullion.com.sg"},{"id":2003,"lat":1.48402,"lon":103.6472981,"icon":"storefront","name":"Fesyen & Alat Tulis XL","address":"29 Jalan Indah 5/7 Taman Bukit Indah 81200","opening_hours":"Mo-Su 05:00-15:30","created_at":"2022-11-18T09:11:33Z","updated_at":"2026-03-19T11:02:54.919Z","verified_at":"2026-03-19T00:00:00Z","osm_id":"node:10199104226"},{"id":2342,"lat":1.3062788,"lon":103.8315988,"icon":"restaurant","name":"8 Korean BBQ","opening_hours":"Mo-Su 11:30-22:00","created_at":"2022-12-31T11:21:44Z","updated_at":"2025-09-18T05:36:30.912Z","verified_at":"2022-12-31T00:00:00Z","osm_id":"node:10296573242","phone":"+6590189212","website":"https://www.restaurants.sg/modules/booking/book_form_section.php?redirect=1&data=&bkrestaurant=SG_SG_R_EightKoreanBbq&bktitle=&city=&country=&bkextra=&bktracking=WEBSITE&bkdate=&restaurantselected=&bkpromo=&type=&notestext=&fbclid=IwAR2L_VIeYFW_rPv0fB38FW"},{"id":2343,"lat":1.3283843,"lon":103.8724202,"icon":"cake","name":"Sticky","address":"156 MacPherson Road Singapore 348528","opening_hours":"Mo-Sa 10:30-17:30","created_at":"2022-12-31T11:31:31Z","updated_at":"2026-07-02T19:34:10.339Z","verified_at":"2026-07-02T00:00:00Z","osm_id":"node:10296618991","phone":"+65 8482 7788","website":"https://www.sticky.com.sg/","instagram":"https://www.instagram.com/stickysingapore/"},{"id":2344,"lat":1.2891805,"lon":103.8466266,"icon":"restaurant","name":"8 Korean BBQ","address":"6 Eu Tong Sen Street Singapore 059817","opening_hours":"Mo-Su 11:30-14:30, 17:30-22:30","comments":2,"created_at":"2022-12-31T11:11:36Z","updated_at":"2026-07-02T19:34:10.35Z","verified_at":"2026-07-02T00:00:00Z","osm_id":"node:10296625888","phone":"+65 86921188","website":"https://www.8koreanbbq.com/","boosted_until":"2024-11-14T02:32:55.834408334Z"},{"id":11763,"lat":1.2981807,"lon":103.8569144,"icon":"restaurant","name":"Joo Bar Makegeolli Bar","address":"Tan Quee Lan Street Singapore 188094","opening_hours":"Tu 17:00-23:00; We-Sa 17:30-00:00","comments":2,"created_at":"2022-12-31T11:31:31Z","updated_at":"2026-07-02T17:34:06.425Z","verified_at":"2026-07-02T00:00:00Z","osm_id":"node:4620794295","phone":"+65 81381628","website":"https://www.joo-bar.com/","email":"questions@joo-bar.com","boosted_until":"2025-01-04T14:26:42.399Z"},{"id":17214,"lat":1.2882952,"lon":103.847127,"icon":"diamond","name":"BullionStar","address":"45 New Bridge Road Singapore 059398","opening_hours":"Mo-Sa 11:00-19:00","comments":1,"created_at":"2024-01-04T06:10:50.004Z","updated_at":"2026-02-12T00:05:06.167Z","verified_at":"2025-02-12T00:00:00Z","osm_id":"node:9522342023","phone":"+65 6284 4653","website":"https://www.bullionstar.com"},{"id":21671,"lat":1.401599,"lon":103.8925761,"icon":"local_grocery_store","name":"Norman","address":"223 Sumang Lane Singapore 821223","created_at":"2024-11-14T03:12:08.254Z","updated_at":"2025-11-13T00:05:08.803Z","verified_at":"2024-11-13T00:00:00Z","osm_id":"node:12338351033","phone":"+65 88 398 670"},{"id":28362,"lat":1.2870202,"lon":103.8451448,"icon":"computer","name":"Blend Local Search Marketing","address":"2 Havelock Road Singapore 059763","created_at":"2025-08-13T12:22:31.048Z","updated_at":"2026-06-04T00:05:12.136Z","verified_at":"2025-09-01T00:00:00Z","osm_id":"node:13068769706","phone":"+65 3106 0302","website":"https://blendlocalsearchmarketing.com/"}],"areas":[{"id":584,"name":"Singapore","type":"country","url_alias":"sg","icon":"https://static.btcmap.org/images/countries/sg.svg","website_url":"https://btcmap.org/country/sg"}]}