{"program":"Switzerland","fetchedAt":"2026-07-07T16:02:08.747Z","coord":{"lat":46.948,"lon":7.4474,"radiusKm":50},"places":[{"id":663,"lat":46.6905082,"lon":7.6753038,"icon":"spa","name":"Massage Praxis Samuel Büchel","address":"2 Thunstrasse Spiez 3700","created_at":"2022-10-23T13:01:31Z","updated_at":"2026-05-28T00:05:29.007Z","verified_at":"2025-05-28T00:00:00Z","osm_id":"node:10123759353","phone":"+41 79 314 11 26","website":"https://www.buechelmassage.com/","email":"buechelmassage@gmail.com","description":"Eingang: Chiro- und Physiopraxis Spiez"},{"id":732,"lat":46.774886,"lon":7.6325876,"icon":"business","name":"RoRa Treuhand+Revisions AG","address":"6 Glockenthalstrasse Steffisburg 3612","created_at":"2022-10-25T12:51:32Z","updated_at":"2025-09-18T05:36:31.175Z","verified_at":"2023-07-15T00:00:00Z","osm_id":"node:10128078863","phone":"+41 334387766","website":"https://www.rora-treuhand.ch/","email":"info@rora-treuhand.ch","description":"Treuhand, Finance, Accounting, Tax"},{"id":883,"lat":47.3601134,"lon":8.0393995,"icon":"business","name":"PromoPixels","address":"18 Buchenweg Oberentfelden 5036","created_at":"2022-10-29T09:11:32Z","updated_at":"2025-09-18T05:36:31.061Z","verified_at":"2022-10-29T00:00:00Z","osm_id":"node:10137382848","phone":"+41 764680811","website":"https://promopixels.ch/","email":"info@promopixels.ch","description":"Online-Marketing-Unternehmen"},{"id":2019,"lat":47.1307398,"lon":7.2413781,"icon":"group","name":"P15 CoNetWorking Space à la Biennoise","address":"15 Johann Aberli Strasse Biel 2503","opening_hours":"Mo-Fr 09:00-17:00","created_at":"2023-10-15T19:00:46.44Z","updated_at":"2025-12-27T20:42:15.413Z","verified_at":"2025-12-27T00:00:00Z","osm_id":"node:10210421015","phone":"+41 32 312 00 90","website":"https://www.p15.space/","email":"info@p15.space"},{"id":2360,"lat":46.7477516,"lon":7.6517467,"icon":"business","name":"Kullmann Services","address":"1C Rainweg Hünibach 3626","opening_hours":"\"by appointment only\"","created_at":"2023-01-03T11:41:34Z","updated_at":"2026-06-13T16:13:24.877Z","verified_at":"2026-06-13T00:00:00Z","osm_id":"node:10302243833","phone":"+41 79 7207786","website":"https://www.kullmann-services.ch","email":"kontakt@kullmann-services.ch"},{"id":3064,"lat":47.1927437,"lon":7.3969002,"icon":"construction","name":"hf-cast Zahntechnik","address":"8 Bettlachstrasse Grenchen 2540","opening_hours":"\"by appointment only\"","created_at":"2023-03-07T10:52:39Z","updated_at":"2026-06-18T11:24:15.593Z","verified_at":"2026-06-18T00:00:00Z","osm_id":"node:10718675458","phone":"+41 32 652 79 29","website":"https://www.hf-cast.ch/","email":"info@hf-cast.ch","description":"Dental Labor"},{"id":3228,"lat":47.3119728,"lon":8.0497421,"icon":"storefront","name":"Arondo Storen","address":"8 Holzikerstrasse Schöftland 5040","created_at":"2023-03-30T08:30:52.842Z","updated_at":"2025-11-08T17:02:10.518Z","verified_at":"2023-03-30T00:00:00Z","osm_id":"node:10772758931","phone":"+41 62 721 07 77","website":"https://www.arondostorenag.ch/","boosted_until":"2023-06-25T13:49:23.328Z"},{"id":3402,"lat":47.3533765,"lon":7.4102538,"icon":"attach_money","name":"Gestcosa","address":"2 Impasse des Charmes Vicques 2824","opening_hours":"\"by appointment only\"","created_at":"2023-04-17T13:20:39.485Z","updated_at":"2026-06-18T12:54:22.852Z","verified_at":"2026-06-18T00:00:00Z","osm_id":"node:10819626856","phone":"+41 32 435 71 11","website":"https://gestcosa.ch","email":"info@gestcosa.ch"},{"id":3695,"lat":47.3354253,"lon":7.2828704,"icon":"storefront","name":"SN3RS","address":"24 Rue de la Faverge Courfaivre","created_at":"2023-05-15T13:20:44.421Z","updated_at":"2025-11-03T19:42:14.781Z","verified_at":"2023-05-15T00:00:00Z","osm_id":"node:10899388376","website":"https://www.sn3rs.ch/","instagram":"https://www.instagram.com/sn3rs/","email":"contactsn3rs@gmail.com"},{"id":3807,"lat":46.9478066,"lon":7.4479166,"icon":"medical_services","name":"Praxis Wallner","comments":1,"created_at":"2023-05-22T14:50:52.591Z","updated_at":"2025-09-18T05:36:32.944Z","verified_at":"2024-03-24T00:00:00Z","osm_id":"node:10918482680","website":"https://www.praxis-wallner.ch","email":"info@praxis-wallner.ch","boosted_until":"2024-11-04T04:28:47.508156044Z"},{"id":4286,"lat":46.8832125,"lon":7.4744296,"icon":"content_cut","name":"Coiffure Le Saloon","address":"27 Bernstrasse Zimmerwald 3086","opening_hours":"\"By appointment\"","comments":1,"created_at":"2023-06-30T13:10:50.722Z","updated_at":"2026-06-24T18:34:05.131Z","verified_at":"2026-06-24T00:00:00Z","osm_id":"node:11015976125","phone":"+41 79 315 65 62","email":"nan76g@gmail.com","boosted_until":"2024-10-11T06:43:37.015569555Z"},{"id":4926,"lat":46.9139608,"lon":7.9334301,"icon":"hive","name":"BieneBienz","address":"1 Schmiedgasse Escholzmatt 6182","opening_hours":"Mo 08:00-11:45; Th 09:00-17:00; Fr 09:00-18:30; Sa 09:00-14:00","created_at":"2023-08-06T10:50:37.865Z","updated_at":"2026-06-21T00:05:19.657Z","verified_at":"2025-06-21T00:00:00Z","osm_id":"node:11093156598","phone":"+41 76 249 61 48","website":"https://bienebienz.ch/","email":"info@bienebienz.ch","image":"https://bienebienz.ch/wp-content/uploads/2020/02/bienebienz-logo-mini-1.jpg"},{"id":5077,"lat":47.3165921,"lon":7.8115882,"icon":"factory","name":"SUBAG TECH AG - Klimatechnik","created_at":"2023-08-23T23:00:38.326Z","updated_at":"2025-09-18T05:36:31.122Z","verified_at":"2023-02-13T00:00:00Z","osm_id":"node:11139999755"},{"id":5615,"lat":47.3513221,"lon":7.909356,"icon":"medical_services","name":"Rückenschmerz-Zentrum Olten","address":"15 Martin Disteli-Strasse Olten 4600","opening_hours":"\"by appointment only\"","created_at":"2023-10-29T20:00:40.85Z","updated_at":"2026-06-09T18:54:25.534Z","verified_at":"2026-06-09T00:00:00Z","osm_id":"node:11298599921","phone":"+41 62 296 19 19","website":"https://www.rueckenschmerz-zentrum.ch/","email":"rs-z@hin.ch"},{"id":5616,"lat":47.2030411,"lon":7.5439965,"icon":"medical_services","name":"Rückenschmerz-Zentrum Solothurn","address":"43 Zuchwilerstrasse Solothurn 4500","opening_hours":"\"by appointment only\"","created_at":"2023-10-29T20:10:39.382Z","updated_at":"2026-06-09T18:54:25.539Z","verified_at":"2026-06-09T00:00:00Z","osm_id":"node:11298616585","phone":"+41 32 623 17 19","website":"https://www.rueckenschmerz-zentrum.ch/","email":"rs-z@hin.ch"},{"id":5874,"lat":47.3912392,"lon":8.0473368,"icon":"diamond","name":"Gygax Uhren Schmuck Erleben","address":"31 Bahnhofstrasse Aarau 5000","opening_hours":"Mo 13:30-18:30; Tu-Fr 10:00-18:30; Sa 10:00-17:00","created_at":"2022-09-25T08:45:08Z","updated_at":"2026-02-14T07:22:29.564Z","verified_at":"2026-01-12T00:00:00Z","osm_id":"node:1675745537","phone":"+41 62 832 52 52","website":"https://gygax.com","email":"info@gygax.com"},{"id":11757,"lat":47.1390768,"lon":7.2453205,"icon":"dentistry","name":"Zahnarztpraxis Dr. Matthias Nötzel","address":"11 Eisengasse Biel/Bienne 2502","opening_hours":"Mo-Fr 08:00-20:00","comments":2,"created_at":"2022-09-25T08:45:08Z","updated_at":"2026-03-05T15:30:01.818Z","verified_at":"2023-09-30T00:00:00Z","osm_id":"node:4610125386","phone":"+41 32 344 46 95","website":"https://zahnarzt-noetzel.ch/","email":"info@zahnarzt-noetzel.ch","boosted_until":"2024-10-09T04:38:51.774315944Z","description":"Zahnarztpraxis Dr. Matthias Nötzel Zahnarzt und Oralchirurg SSO Medizinische Zentrum Biel MZB Apollonia Dental AG"},{"id":12323,"lat":46.9921629,"lon":6.9364777,"icon":"business","name":"Raccoon","address":"24 Rue des couviers Marin 2074","created_at":"2022-09-25T08:45:08Z","updated_at":"2025-09-18T05:36:32.619Z","verified_at":"2023-02-08T00:00:00Z","osm_id":"node:5291164118","website":"https://raccoon.ch","description":"Web Development"},{"id":12332,"lat":46.9397133,"lon":7.3888295,"icon":"beach_access","name":"stuwo.ch Bottigencamp","address":"22 Bottigenstrasse Bern 3018","created_at":"2022-09-25T08:45:08Z","updated_at":"2026-06-04T00:05:13.879Z","verified_at":"2025-06-04T00:00:00Z","osm_id":"node:5294624292"},{"id":12333,"lat":46.9505152,"lon":7.3914098,"icon":"hotel","name":"Stuwo Betlehem Camp I - III","created_at":"2022-09-25T08:45:08Z","updated_at":"2026-06-04T00:05:13.88Z","verified_at":"2025-06-04T00:00:00Z","osm_id":"node:5294633875","phone":"+41 79 8614512","website":"https://stuwo.ch","facebook":"https://www.facebook.com/stuwo.ch/","email":"sekretariat@stuwo.ch","description":"Longterm Rental for students and young people"},{"id":12334,"lat":46.9489118,"lon":7.3764,"icon":"hotel","name":"Westside Longterm Rental Camp stuwo.ch","created_at":"2022-09-25T08:45:08Z","updated_at":"2026-06-04T00:05:13.882Z","verified_at":"2025-06-04T00:00:00Z","osm_id":"node:5294635288"},{"id":12335,"lat":46.933101,"lon":7.4966266,"icon":"hotel","name":"Seidenberg Stuwo.ch","address":"8 Hessstrasse Gümligen 3073","created_at":"2022-09-25T08:45:08Z","updated_at":"2026-06-04T00:05:13.883Z","verified_at":"2025-06-04T00:00:00Z","osm_id":"node:5294644334"},{"id":12340,"lat":47.1384162,"lon":7.247476,"icon":"home","name":"Biel Camp Stuwo BFH","address":"18 Rue de Flore / Florastrasse Biel/Bienne 2502","created_at":"2022-09-25T08:45:08Z","updated_at":"2026-06-04T00:05:13.886Z","verified_at":"2025-06-04T00:00:00Z","osm_id":"node:5294652492"},{"id":12341,"lat":46.9448339,"lon":7.3869944,"icon":"beach_access","name":"Stapfen Camp Stuwo BFH / UNIBE","address":"51 Stapfenstrasse Bern 3018","created_at":"2022-09-25T08:45:08Z","updated_at":"2026-06-04T00:05:13.887Z","verified_at":"2025-06-04T00:00:00Z","osm_id":"node:5295511200"},{"id":13049,"lat":46.9486129,"lon":7.4490023,"icon":"local_bar","name":"Department 66","address":"66 Rathausgasse Bern 3011","opening_hours":"Mo-Mi 17:00-23:00; Th 17:00-00:00; Fr-Sa 17:00-02:30; Su off; PH off","comments":1,"created_at":"2022-10-07T08:33:51Z","updated_at":"2025-09-18T05:36:35.722Z","verified_at":"2024-09-07T00:00:00Z","osm_id":"node:6236061372","website":"https://www.department66.ch","facebook":"https://www.facebook.com/Department.66.Bern","instagram":"https://www.instagram.com/department.66.bern","email":"department66@gmx.ch","boosted_until":"2024-10-14T09:44:40.126381582Z"},{"id":13114,"lat":47.1716988,"lon":7.5314269,"icon":"hotel","name":"Chez Sven","address":"48 Schulhausstrasse Lohn-Ammannsegg 4573","created_at":"2022-09-25T08:45:08Z","updated_at":"2026-02-27T00:05:13.824Z","verified_at":"2025-02-27T00:00:00Z","osm_id":"node:6320918130","phone":"+41 76 373 32 77","website":"https://www.chez-sven.ch/","email":"info@chez-sven.ch"},{"id":13115,"lat":47.2048942,"lon":7.5154585,"icon":"hotel","name":"Chez Sven Apartment","address":"Weststadtstrasse Solothurn 4500","created_at":"2022-09-25T08:45:08Z","updated_at":"2025-09-18T05:36:31.123Z","verified_at":"2023-02-13T00:00:00Z","osm_id":"node:6320918131","phone":"+41 76 373 32 77","website":"https://www.chez-sven.ch/","email":"info@chez-sven.ch"},{"id":13516,"lat":47.2223562,"lon":7.517786,"icon":"storefront","name":"Chäsi Längedorf","address":"11 Rüttenenstrasse Langendorf 4513","opening_hours":"Mo,Tu,Th,Fr 07:30-12:00,15:00-18:30; Sa 07:30-15:00","created_at":"2022-10-31T12:41:38Z","updated_at":"2026-06-15T13:43:54.921Z","verified_at":"2026-06-15T00:00:00Z","osm_id":"node:7102338573","phone":"+41 32 623 33 23","website":"https://www.chäsi-längedorf.ch","email":"chaesi@bluemail.ch"},{"id":13717,"lat":46.9928062,"lon":6.9255094,"icon":"local_atm","name":"Bity - City Centre","opening_hours":"24/7","created_at":"2022-09-25T08:45:08Z","updated_at":"2026-06-05T00:05:07.064Z","verified_at":"2025-06-05T00:00:00Z","osm_id":"node:7915821128","website":"https://blog.bity.com/2020/01/10/a-new-atm-is-ready-for-you-in-neuchatel/"},{"id":13732,"lat":47.1119706,"lon":7.2274201,"icon":"school","name":"Bitcoin-Schweiz.ch","address":"5 Keltenstrasse Ipsach 2563","created_at":"2022-09-25T08:45:08Z","updated_at":"2025-12-27T20:42:15.178Z","verified_at":"2025-12-27T00:00:00Z","osm_id":"node:7959611868","phone":"+41 32 505 28 28","website":"https://bitcoin-schweiz.ch/","facebook":"https://www.facebook.com/people/Bitcoin-schweizch/61584741099023/","email":"juerg@bitcoin-schweiz.ch","boosted_until":"2024-10-09T04:39:48.690303398Z"},{"id":16969,"lat":47.2069995,"lon":7.5371538,"icon":"local_bar","name":"gassbar","address":"10 Schaalgasse Solothurn 4500","opening_hours":"Mo-Th 17:00-00:30, Fr-Sa 17:00-02:00; PH off","created_at":"2023-12-21T20:10:47.143Z","updated_at":"2025-09-18T05:36:31.596Z","verified_at":"2023-12-21T00:00:00Z","osm_id":"node:1713911600","phone":"+41 32 535 00 50","website":"https://www.gassbar.ch","email":"info@barocksolothurn.ch"},{"id":17041,"lat":46.9390257,"lon":7.4743241,"icon":"fitness_center","name":"Aurum","address":"3F Weltpoststrasse Bern 3015","opening_hours":"Mo-Fr 07:00-21:00; Sa-So 09:00-16:00","created_at":"2023-12-30T04:20:54.224Z","updated_at":"2025-09-18T05:36:31.736Z","verified_at":"2024-01-04T00:00:00Z","osm_id":"node:11467512639","phone":"+41 76 804 3359","website":"https://www.aurumfit.com/","facebook":"https://www.facebook.com/AURUMtraining","instagram":"https://www.instagram.com/aurumtraining_","email":"studio42@aurumfit.com"},{"id":17812,"lat":46.6984013,"lon":7.7947877,"icon":"bakery_dining","name":"Bel-Air","address":"286 Spirenwaldstrasse Beatenberg 3803","opening_hours":"Mo, Tu, Fr 07:00-17:00; We 07:00-12:00; Sa, Su 07:00-17:00","created_at":"2024-02-06T15:30:57.838Z","updated_at":"2026-03-31T08:12:56.167Z","verified_at":"2026-03-31T00:00:00Z","osm_id":"node:2142586975","phone":"+41 33 841 11 25","website":"https://www.bel-air.ch/"},{"id":17813,"lat":46.6983671,"lon":7.7947283,"icon":"local_cafe","name":"Bel-Air","address":"286 Spirenwaldstrasse Beatenberg 3803","opening_hours":"Mo, Tu, Fr 07:00-17:00; We 07:00-12:00; Sa, Su 07:00-17:00","created_at":"2024-02-06T15:31:04.43Z","updated_at":"2026-03-31T05:52:28.787Z","verified_at":"2024-02-06T00:00:00Z","osm_id":"node:3138996048","phone":"+41 33 841 11 25","website":"https://www.bel-air.ch"},{"id":18089,"lat":46.680503,"lon":7.823536,"icon":"sports","name":"Hang Gliding Interlaken","address":"Seestrasse Unterseen 3800","created_at":"2024-02-25T11:21:15.559Z","updated_at":"2025-09-18T05:36:32.445Z","verified_at":"2024-02-16T00:00:00Z","osm_id":"node:11632314966","website":"https://www.hangglidinginterlaken.com/","description":"Hang Gliding Interlaken specializes in Tandem Hang Gliding flights for the adventure seeking tourist.  No experience needed !"},{"id":18119,"lat":47.1077966,"lon":7.4933205,"icon":"business","name":"DynamicDyno","address":"7 Mülchistrasse Limpach 3317","opening_hours":"Mo-Sa 09:00-22:00","created_at":"2024-02-28T12:21:25.632Z","updated_at":"2026-05-29T00:05:10.556Z","verified_at":"2025-08-26T00:00:00Z","osm_id":"node:11672424664","phone":"+41 79 341 0632","website":"https://dynamicdyno.ch/","email":"info@dynamicdyno.ch"},{"id":18126,"lat":47.3766637,"lon":8.0765885,"icon":"pedal_bike","name":"Le Pedaleur / Veloservice Suhr","address":"22 Bachstrasse Suhr 5034","comments":1,"created_at":"2024-02-28T20:11:07.564Z","updated_at":"2026-01-18T10:42:25.635Z","verified_at":"2026-01-18T00:00:00Z","osm_id":"node:8381849474","phone":"+41 62 843 01 01","website":"https://www.lepedaleur.com/","boosted_until":"2027-01-17T20:59:33.213550391Z"},{"id":18127,"lat":47.394569,"lon":8.045484,"icon":"storefront","name":"Chalira Gewürz- & Senfmühle","address":"28 Hammer 2 Aarau 5000","created_at":"2024-02-28T20:11:26.388Z","updated_at":"2025-12-05T23:01:37.553Z","verified_at":"2024-02-28T00:00:00Z","osm_id":"node:11673385435","website":"https://www.chalira.ch/"},{"id":18680,"lat":46.9916209,"lon":6.9341995,"icon":"lunch_dining","name":"La Frite Vagabonde","address":"4 Pl. du Port Neuchâtel 2000","opening_hours":"Mo-Fr 11:30-14:00,17:00-21:00; Sa 11:30-21:00; Su 11:30-19:00","created_at":"2024-04-02T08:20:44.652Z","updated_at":"2026-06-07T19:24:09.313Z","verified_at":"2026-06-07T00:00:00Z","osm_id":"node:1665649858","phone":"+41 79 9317756"},{"id":19333,"lat":47.06246,"lon":7.6162691,"icon":"computer","name":"SayNode Operations AG","address":"1 Tiergarten Burgdorf 3400","opening_hours":"\"by appointment only\"","created_at":"2024-05-15T15:02:03.126Z","updated_at":"2026-06-18T11:44:19.156Z","verified_at":"2026-06-18T00:00:00Z","osm_id":"node:11907302435","website":"https://www.saynode.ch/","email":"info@saynode.ch"},{"id":20016,"lat":47.3534102,"lon":7.4103264,"icon":"attach_money","name":"Crypto Solutions","address":"2 Impasse des Charmes Vicques 2824","opening_hours":"\"by appointment only\"","created_at":"2024-07-05T13:31:18.934Z","updated_at":"2026-06-18T12:54:24.399Z","verified_at":"2026-06-18T00:00:00Z","osm_id":"node:12035936670","phone":"+41 79 200 59 00","website":"https://crypto-solutions-sarl.ch/","email":"lucas.nobs@crypto-solutions-sarl.ch"},{"id":20404,"lat":46.9408054,"lon":7.4359522,"icon":"lunch_dining","name":"HurryCurry","address":"67 Monbijoustrasse Bern 3007","opening_hours":"Mo-Fr 11:30-13:30","comments":2,"created_at":"2024-08-06T07:11:41.696Z","updated_at":"2026-01-14T08:42:29.956Z","verified_at":"2026-01-14T00:00:00Z","osm_id":"node:12094739651","phone":"+41 78 313 8100","website":"https://hurrycurrykitchen.ch","email":"info@hurrycurry.ch","boosted_until":"2024-12-08T05:13:48.791635033Z"},{"id":20424,"lat":47.1281805,"lon":7.2348952,"icon":"medical_services","name":"Jerome Rey, Gesundheitspraxis, Traumatherapie, Floating, Schamanismus, Delfinreisen","address":"Schlossstrasse 24 Nidau 2560","created_at":"2024-08-08T10:41:31.288Z","updated_at":"2025-09-18T05:36:34.876Z","verified_at":"2024-08-07T00:00:00Z","osm_id":"node:12098610218","website":"https://www.jeromerey.ch/"},{"id":20702,"lat":47.1088513,"lon":7.3605315,"icon":"medical_services","name":"Heilpraxis für Homöopathie und Energetisches Heilen","address":"29 Dorfstrasse Diessbach bei Büren 3264","created_at":"2024-09-07T12:31:38.871Z","updated_at":"2025-09-18T05:36:35.72Z","verified_at":"2024-09-07T00:00:00Z","osm_id":"node:12161733735","phone":"+41794506378","website":"https://jeannette-desebrock.ch/"},{"id":20936,"lat":46.9506646,"lon":7.456621,"icon":"medical_services","name":"floatbern","opening_hours":"10:00-22:00","comments":1,"created_at":"2024-10-03T10:53:43.135Z","updated_at":"2026-02-06T10:43:02.213Z","verified_at":"2024-10-03T00:00:00Z","osm_id":"node:2811570956","phone":"+41 79 551 28 01","website":"https://www.floatbern.ch/","email":"info@floatbern.ch"},{"id":20937,"lat":46.7724923,"lon":7.6254482,"icon":"storefront","name":"flick it","address":"14 Weberweg Steffisburg 3612","opening_hours":"nur auf Voranmeldung","created_at":"2024-10-03T12:04:07.546Z","updated_at":"2025-10-03T00:05:10.041Z","verified_at":"2024-10-03T00:00:00Z","osm_id":"node:12218467998","website":"https://flickit.ch/"},{"id":21152,"lat":46.8391151,"lon":7.6333232,"icon":"storefront","name":"Siegel Honig","address":"90 Schloss-Strasse Oberdiessbach 3672","opening_hours":"\"by appointment only\"","created_at":"2024-10-18T17:02:24.599Z","updated_at":"2026-06-18T17:33:49.006Z","verified_at":"2026-06-18T00:00:00Z","osm_id":"node:12263131512","phone":"+41 79 443 26 44","website":"https://siegelhonig.jimdofree.com/","email":"anmelden@tuta.io"},{"id":21295,"lat":46.7818525,"lon":7.6302544,"icon":"business","name":"Joel Stüdle","address":"12 Pfrundmattweg Steffisburg 3612","opening_hours":"\"by appointment only\"","created_at":"2024-10-26T08:42:19.28Z","updated_at":"2026-06-16T11:43:50.411Z","verified_at":"2026-06-15T00:00:00Z","osm_id":"node:12289670296","website":"https://joelstuedle.ch","email":"joel.stuedle@gmail.com","image":"https://joelstuedle.ch/assets/media/favicon-dark192.png"}],"areas":[{"id":194,"name":"Switzerland","type":"country","url_alias":"ch","icon":"https://static.btcmap.org/images/countries/ch.svg","website_url":"https://btcmap.org/country/ch"},{"id":71,"name":"Bitcoin Association Switzerland","type":"community","url_alias":"bitcoin-association-switzerland","icon":"https://static.btcmap.org/images/communities/bitcoin-association-switzerland.png","website_url":"https://btcmap.org/community/bitcoin-association-switzerland"},{"id":226,"name":"Dezentralschweiz","type":"community","url_alias":"dezentralschweiz","icon":"https://static.btcmap.org/images/communities/dezentralschweiz.jpeg","website_url":"https://btcmap.org/community/dezentralschweiz"},{"id":331,"name":"Einundzwanzig Schweiz","type":"community","url_alias":"einundzwanzig-schweiz","icon":"https://static.btcmap.org/images/areas/331_square.jpg","website_url":"https://btcmap.org/community/einundzwanzig-schweiz"}]}