{"program":"El Salvador","fetchedAt":"2026-07-07T16:02:05.582Z","coord":{"lat":13.6929,"lon":-89.2182,"radiusKm":80},"places":[{"id":216,"lat":13.6940901,"lon":-89.2388799,"icon":"restaurant","name":"Nacion Sushi","created_at":"2022-09-29T18:45:07Z","updated_at":"2025-09-18T05:36:31.066Z","verified_at":"2022-09-29T00:00:00Z","osm_id":"node:10061804944","website":"https://nacionsushi.com/"},{"id":239,"lat":13.4972995,"lon":-89.4414673,"icon":"group","name":"Hope House","created_at":"2022-09-30T19:30:22Z","updated_at":"2026-01-06T18:42:29.89Z","verified_at":"2026-01-06T00:00:00Z","osm_id":"node:10065166137","website":"https://hopehouseelsalvador.org/"},{"id":367,"lat":13.4960915,"lon":-89.4433974,"icon":"hotel","name":"Garten Hotel","created_at":"2022-10-08T20:53:14Z","updated_at":"2026-04-14T16:53:35.46Z","verified_at":"2026-04-14T00:00:00Z","osm_id":"node:10085630774","phone":"+503 6312 0143","website":"https://www.gartenzonte.com/","facebook":"https://www.facebook.com/gartenzonte","email":"bookings@gartenzonte.com"},{"id":368,"lat":13.4958112,"lon":-89.4418586,"icon":"local_cafe","name":"Point Break Café - El Zonte","opening_hours":"Mo-Su 08:00-16:00","comments":1,"created_at":"2022-10-08T20:53:14Z","updated_at":"2026-04-14T16:53:35.465Z","verified_at":"2026-04-14T00:00:00Z","osm_id":"node:10085734732","phone":"+503 6009 2022","boosted_until":"2024-10-15T02:08:08.379151828Z"},{"id":373,"lat":13.4970075,"lon":-89.441047,"icon":"hotel","name":"Hotel Michanti","comments":1,"created_at":"2022-10-09T17:43:48Z","updated_at":"2026-04-15T21:13:20.811Z","verified_at":"2026-04-15T00:00:00Z","osm_id":"node:10087444256","phone":"+503 7087 0342","website":"https://hotelmichanti.com/","facebook":"https://www.facebook.com/hotelmichanti/","email":"hotelmichanti@gmail.com","boosted_until":"2024-10-15T02:52:56.676167728Z"},{"id":577,"lat":13.4962327,"lon":-89.4385794,"icon":"hotel","name":"Palo Verde Sustainable Hotel","comments":1,"created_at":"2022-10-18T20:31:31Z","updated_at":"2026-01-21T23:02:19.643Z","verified_at":"2026-01-21T00:00:00Z","osm_id":"node:10112188400","phone":"+503 7744 1132","website":"https://paloverdehotel.com/","facebook":"https://www.facebook.com/PaloVerdeHotelSV/","boosted_until":"2024-10-09T02:34:17.913727895Z"},{"id":579,"lat":13.4955462,"lon":-89.4412668,"icon":"restaurant","name":"Pupuseria Mama Blanca","created_at":"2022-10-18T20:21:28Z","updated_at":"2026-06-16T00:05:07.977Z","verified_at":"2025-09-13T00:00:00Z","osm_id":"node:10112203319"},{"id":610,"lat":13.4982734,"lon":-89.4239204,"icon":"restaurant","name":"Carolina's Pupusería","address":"Colonia el Palmarcito","comments":1,"created_at":"2022-10-19T17:21:31Z","updated_at":"2026-05-12T19:14:07.134Z","verified_at":"2026-05-05T00:00:00Z","osm_id":"node:10114699175"},{"id":613,"lat":13.7041881,"lon":-89.2489602,"icon":"hotel","name":"Bitcoin Landing Spot","address":"110 Av. Masferrer Nte San Salvador","comments":2,"created_at":"2022-10-19T23:21:32Z","updated_at":"2026-04-13T00:05:54.309Z","verified_at":"2025-07-11T00:00:00Z","osm_id":"node:10115300184","phone":"+503 7951 0200","website":"https://linktr.ee/bitcoinlandingspot","twitter":"https://twitter.com/BTCLandingSpot","boosted_until":"2024-11-15T10:18:15.148927303Z"},{"id":673,"lat":13.6711174,"lon":-89.2550996,"icon":"local_cafe","name":"Starbucks","created_at":"2022-10-23T15:11:31Z","updated_at":"2025-12-02T00:05:06.459Z","verified_at":"2024-12-02T00:00:00Z","osm_id":"node:10124031115"},{"id":679,"lat":13.7068232,"lon":-89.2493694,"icon":"local_grocery_store","name":"Super Selectos","created_at":"2022-10-23T17:41:34Z","updated_at":"2025-12-03T00:05:05.889Z","verified_at":"2024-12-03T00:00:00Z","osm_id":"node:10124384530","phone":"+50322632282","website":"https://www.superselectos.com/"},{"id":777,"lat":13.6902357,"lon":-89.2387762,"icon":"local_cafe","name":"Juan Valdez Café","address":"Bulevar Sergio Viera de Mello San Salvador 1101","comments":1,"created_at":"2022-10-26T18:41:33Z","updated_at":"2025-09-18T05:36:32.859Z","verified_at":"2022-12-01T00:00:00Z","osm_id":"node:10130944937","website":"https://www.juanvaldezcafe.com/","boosted_until":"2024-10-16T12:23:53.729816294Z"},{"id":1151,"lat":13.7083194,"lon":-89.241426,"icon":"local_cafe","name":"Starbucks","created_at":"2022-11-11T02:41:33Z","updated_at":"2025-12-02T00:05:06.481Z","verified_at":"2024-12-02T00:00:00Z","osm_id":"node:10174814129"},{"id":1165,"lat":13.7084549,"lon":-89.2408466,"icon":"restaurant","name":"El Chamo - La Placita","address":"87 Avenida Norte San Salvador","comments":1,"created_at":"2022-11-11T22:51:48Z","updated_at":"2025-09-18T05:36:32.861Z","verified_at":"2022-11-15T00:00:00Z","osm_id":"node:10177277453","phone":"+503 7517 6103","website":"https://www.facebook.com/elchamo503/","email":"elchamo503.sv@gmail.com","boosted_until":"2024-10-16T13:45:59.557790247Z"},{"id":2013,"lat":13.6784136,"lon":-89.2750586,"icon":"business","name":"Bitex Capital","created_at":"2022-11-20T16:11:59Z","updated_at":"2025-10-09T20:22:23.785Z","verified_at":"2022-11-23T00:00:00Z","osm_id":"node:10204152460","phone":"(503) 2398 2775","website":"https://bitexcapital.net/"},{"id":2014,"lat":13.8363282,"lon":-89.6062136,"icon":"local_cafe","name":"Cráter Coffee Shop & Bistro","address":"Calle al Cerro Verde Santa Ana","opening_hours":"Mo-Fr 12:00-19:00; Sa-Su 07:00-19:00","comments":1,"created_at":"2022-11-20T23:21:34Z","updated_at":"2025-09-18T05:36:32.862Z","verified_at":"2022-11-20T00:00:00Z","osm_id":"node:10205280607","phone":"+503 7231 0107","twitter":"https://twitter.com/cratercoffee_","instagram":"https://www.instagram.com/cratercoffeebistro/","boosted_until":"2024-10-26T05:04:57.715992391Z"},{"id":2021,"lat":13.7238435,"lon":-89.3652421,"icon":"local_cafe","name":"Tata's Coffee","address":"Calle Francisco Menéndez #3-4 Lourdes, Colón","created_at":"2022-11-23T20:21:42Z","updated_at":"2025-10-09T20:22:23.797Z","verified_at":"2022-11-23T00:00:00Z","osm_id":"node:10212796657","phone":"+50379246494","website":"https://www.facebook.com/tatascoffeesv","email":"hola@bitexcapital.net","boosted_until":"2023-01-06T01:59:33.098Z"},{"id":2254,"lat":13.4953264,"lon":-89.4393875,"icon":"school","name":"Say Zonte!","opening_hours":"Mo-Fr 08:00-17:00","created_at":"2022-12-26T12:21:41Z","updated_at":"2026-04-14T18:23:45.087Z","verified_at":"2026-04-14T00:00:00Z","osm_id":"node:10287461325","phone":"+503 6930 7215","website":"https://sayzonte.com/","facebook":"https://www.facebook.com/say.zonte","email":"info@sayzonte.com","description":"Spanish School","image":"https://sayzonte.com/wp-content/uploads/2024/08/IMG_8569.jpg"},{"id":2574,"lat":13.4991959,"lon":-89.4435276,"icon":"hotel","name":"4 Amigos El Zonte","created_at":"2023-01-15T16:41:33Z","updated_at":"2026-04-15T18:53:05.1Z","verified_at":"2026-04-15T00:00:00Z","osm_id":"node:10557047594","phone":"+50369817081","instagram":"https://www.instagram.com/4amigos_elzonte/"},{"id":2594,"lat":13.6933826,"lon":-89.2345823,"icon":"business","name":"Vortex","address":"209 Calle La Reforma San Salvador 01101","opening_hours":"Mo-Fr 08:00-17:00","created_at":"2023-01-17T07:03:05Z","updated_at":"2025-11-04T15:52:46.213Z","verified_at":"2025-11-04T00:00:00Z","osm_id":"node:10561478716","phone":"+503 7580 9684","website":"https://www.abogados.com.sv/","email":"contacto@estudiovortex.com","boosted_until":"2024-01-16T20:53:53.893Z"},{"id":2597,"lat":13.669823,"lon":-89.255803,"icon":"restaurant","name":"San Martin Bakery","address":"Boulevard Santa Elena San Salvador","opening_hours":"Mo-Su 07:00-21:00","created_at":"2023-01-17T07:33:04Z","updated_at":"2025-09-18T05:36:31.097Z","verified_at":"2023-01-17T00:00:00Z","osm_id":"node:10561529021","phone":"+503 22135852","website":"https://sanmartinbakery.com"},{"id":2598,"lat":13.6625824,"lon":-89.1842258,"icon":"storefront","name":"Pierre Cardin","address":"Calle a San Marcos San Marcos","created_at":"2023-01-17T07:43:03Z","updated_at":"2025-09-18T05:36:31.097Z","verified_at":"2023-01-17T00:00:00Z","osm_id":"node:10561531638","phone":"+503 7844 0000","website":"https://www.pierrecardin.com.sv","email":"servicioalcliente@indtopaz.com"},{"id":2602,"lat":13.7837005,"lon":-89.1888737,"icon":"local_cafe","name":"Millie Frozen & Frappé","opening_hours":"Tu-Fr 11:00-20:00","created_at":"2023-01-17T11:32:56Z","updated_at":"2025-09-18T05:36:30.71Z","verified_at":"2023-01-17T00:00:00Z","osm_id":"node:10561865253","phone":"+50372421343"},{"id":2649,"lat":13.6940782,"lon":-89.2388251,"icon":"local_cafe","name":"Mokafe Cannoli","comments":1,"created_at":"2023-01-19T10:12:50Z","updated_at":"2026-04-21T00:05:08.762Z","verified_at":"2025-07-19T00:00:00Z","osm_id":"node:10567499233","phone":"+50322780800","boosted_until":"2024-10-13T02:53:48.088866568Z"},{"id":2681,"lat":13.8401654,"lon":-89.4457864,"icon":"spa","name":"A & M Relax CV+","created_at":"2023-01-22T14:52:53Z","updated_at":"2025-09-18T05:36:30.72Z","verified_at":"2023-01-22T00:00:00Z","osm_id":"node:10574475153","phone":"+503 7162 7318"},{"id":2920,"lat":13.5894129,"lon":-89.8218341,"icon":"local_grocery_store","name":"Super Selectos","created_at":"2023-08-14T04:50:51.656Z","updated_at":"2025-09-18T05:36:31.223Z","verified_at":"2023-08-14T00:00:00Z","osm_id":"node:10649399698"},{"id":2928,"lat":13.6919646,"lon":-89.2367939,"icon":"local_grocery_store","name":"Road Market","address":"211 Boulevard del Hipódromo San Salvador","opening_hours":"24/7","created_at":"2023-08-24T07:30:39.042Z","updated_at":"2025-09-18T05:36:33.33Z","verified_at":"2024-05-25T00:00:00Z","osm_id":"node:10652806405","phone":"+50321045252"},{"id":2991,"lat":13.5776057,"lon":-89.2654213,"icon":"local_cafe","name":"Villa Café","address":"Primera calle poniente,avenida central local 11, San Jose Villanueva, El Salvador","opening_hours":"07:00 - 19:00","created_at":"2023-02-21T02:51:54Z","updated_at":"2025-09-18T05:36:30.767Z","verified_at":"2023-02-20T00:00:00Z","osm_id":"node:10682157854","phone":"+50361516136"},{"id":3024,"lat":13.4867378,"lon":-89.3123933,"icon":"local_grocery_store","name":"Super Selectos","comments":1,"created_at":"2023-08-14T04:50:51.678Z","updated_at":"2026-05-07T17:33:16.06Z","verified_at":"2026-05-07T00:00:00Z","osm_id":"node:10698444537","boosted_until":"2024-11-06T08:48:13.80469656Z"},{"id":3074,"lat":13.4944304,"lon":-89.3833298,"icon":"local_cafe","name":"Day cafe","address":"El Tunco","opening_hours":"Mo-Fr 07:30-17:00, Sa-Su 07:30-18:00","comments":1,"created_at":"2023-03-07T13:22:49Z","updated_at":"2026-04-30T16:14:01.726Z","verified_at":"2026-04-30T00:00:00Z","osm_id":"node:10718965521","phone":"+50323304981","boosted_until":"2024-09-28T06:11:01.027640862Z"},{"id":3083,"lat":13.4987697,"lon":-88.5246146,"icon":"local_gas_station","name":"Gasolinera Uno","created_at":"2023-10-11T16:20:48.075Z","updated_at":"2026-06-05T19:04:20.09Z","verified_at":"2026-06-05T00:00:00Z","osm_id":"node:10721729105"},{"id":3100,"lat":14.0021499,"lon":-89.8754825,"icon":"storefront","name":"Tienda Ricardo Adonay","created_at":"2023-03-13T04:31:36Z","updated_at":"2026-04-17T00:05:13.796Z","verified_at":"2025-07-15T00:00:00Z","osm_id":"node:10731962376"},{"id":3137,"lat":13.7048029,"lon":-89.2489889,"icon":"content_cut","name":"Mirror Mirror Salon","created_at":"2023-03-16T00:32:33Z","updated_at":"2025-09-18T05:36:31.14Z","verified_at":"2023-03-15T00:00:00Z","osm_id":"node:10738275254"},{"id":3319,"lat":13.6926357,"lon":-89.2393531,"icon":"restaurant","name":"Silvestre Café","created_at":"2023-04-11T18:00:48.726Z","updated_at":"2025-12-04T00:05:06.26Z","verified_at":"2024-12-04T00:00:00Z","osm_id":"node:10802494414"},{"id":3350,"lat":13.8604437,"lon":-89.8045395,"icon":"local_cafe","name":"Ecole Café & Bistró Apanecat","address":"3ª Calle Poniente Apaneca","created_at":"2023-04-14T18:01:14.76Z","updated_at":"2025-09-18T05:36:30.875Z","verified_at":"2023-04-14T00:00:00Z","osm_id":"node:10811946445"},{"id":3377,"lat":13.8603152,"lon":-89.8042767,"icon":"restaurant","name":"Texixal Apaneca","address":"1ª Avenida Sur Apaneca","created_at":"2023-04-16T16:00:41.564Z","updated_at":"2026-01-29T16:12:55.224Z","verified_at":"2026-01-21T00:00:00Z","osm_id":"node:10816407661","phone":"77461650","website":"https://www.facebook.com/texixal/"},{"id":3459,"lat":13.8698756,"lon":-89.8537016,"icon":"hotel","name":"Hotel Don Quijote","address":"Concepción de Ataco 01101","created_at":"2023-04-23T02:10:33.012Z","updated_at":"2025-09-18T05:36:30.881Z","verified_at":"2023-04-22T00:00:00Z","osm_id":"node:10833026436","website":"https://hoteldonquijote.wordpress.com/"},{"id":3497,"lat":13.8344221,"lon":-89.7631328,"icon":"storefront","name":"La Nayita Chocolate","opening_hours":"Mo-Fr 09:00-17:00","created_at":"2023-04-26T15:00:47.175Z","updated_at":"2025-09-18T05:36:30.914Z","verified_at":"2023-04-28T00:00:00Z","osm_id":"node:10844108286","phone":"+50370133675","email":"eortegagenovez@gmail.com","description":"hand made chocolates from el salvador"},{"id":3536,"lat":13.7213257,"lon":-89.7227589,"icon":"local_cafe","name":"Aroma Café","created_at":"2023-04-30T20:00:35.85Z","updated_at":"2025-09-18T05:36:30.915Z","verified_at":"2023-04-30T00:00:00Z","osm_id":"node:10858672895","website":"https://www.facebook.com/aromacafesv/"},{"id":3600,"lat":13.4989517,"lon":-88.5284408,"icon":"local_pizza","name":"The Family Pizza","address":"Avenida 14 de Diciembre Berlín","created_at":"2023-05-08T14:10:48.279Z","updated_at":"2025-12-13T16:22:24.887Z","verified_at":"2025-12-12T00:00:00Z","osm_id":"node:10878453472","phone":"+503 7883 1661"},{"id":3716,"lat":13.4957387,"lon":-89.4383225,"icon":"restaurant","name":"Nan Tal","opening_hours":"Su-Th 07:00-21:00; Fr-Sa 07:00-22:00","created_at":"2023-05-16T09:20:46.855Z","updated_at":"2026-04-14T20:13:19.516Z","verified_at":"2026-04-14T00:00:00Z","osm_id":"node:10901426759","website":"https://nantalcocina.com/","boosted_until":"2024-10-09T02:22:09.536083265Z"},{"id":3717,"lat":13.9225038,"lon":-89.8463188,"icon":"storefront","name":"Pierre Cardin","created_at":"2023-05-16T09:30:40.75Z","updated_at":"2026-01-11T07:13:03.77Z","verified_at":"2023-04-24T00:00:00Z","osm_id":"node:10901442043"},{"id":3718,"lat":13.6984067,"lon":-89.1958263,"icon":"storefront","name":"Pierre Cardin","created_at":"2023-05-16T09:40:52.024Z","updated_at":"2026-01-11T07:13:03.771Z","verified_at":"2023-04-24T00:00:00Z","osm_id":"node:10901451751"},{"id":3719,"lat":13.6773903,"lon":-89.2545593,"icon":"storefront","name":"Pierre Cardin","created_at":"2023-05-16T09:30:40.757Z","updated_at":"2026-01-11T07:13:03.772Z","verified_at":"2023-04-24T00:00:00Z","osm_id":"node:10901456408"},{"id":3720,"lat":13.7163649,"lon":-89.0972465,"icon":"storefront","name":"Pierre Cardin","created_at":"2023-05-16T09:40:52.026Z","updated_at":"2026-01-11T07:13:03.774Z","verified_at":"2023-04-24T00:00:00Z","osm_id":"node:10901469719"},{"id":3721,"lat":13.7149534,"lon":-89.140875,"icon":"storefront","name":"Pierre Cardin","created_at":"2023-05-16T10:10:56.613Z","updated_at":"2026-01-11T07:13:03.775Z","verified_at":"2023-04-24T00:00:00Z","osm_id":"node:10901530331"},{"id":3722,"lat":13.4839677,"lon":-89.3352689,"icon":"hotel","name":"La Casona Hostal & Shop","address":"La Libertad","opening_hours":"Mo-Su 05:00-21:00","created_at":"2023-05-16T10:20:38.827Z","updated_at":"2026-05-05T16:02:49.254Z","verified_at":"2026-05-05T00:00:00Z","osm_id":"node:10901547463","phone":"+503 6183 3267","website":"https://www.booking.com/hotel/sv/la-casona-sv.en-gb.html","email":"allisonchicasortiz@gmail.com"},{"id":3723,"lat":13.5000408,"lon":-89.4868969,"icon":"hotel","name":"Lagarza Hostel","created_at":"2023-05-16T10:20:38.828Z","updated_at":"2026-01-11T07:13:03.776Z","verified_at":"2023-04-23T00:00:00Z","osm_id":"node:10901547637","phone":"+503-77053300","website":"https://www.lagarzahostel.com/"}],"areas":[{"id":474,"name":"Mi Primer Bitcoin","type":"community","url_alias":"mi-primer-bitcoin","icon":"https://static.btcmap.org/images/communities/mi-primer-bitcoin.png","website_url":"https://btcmap.org/community/mi-primer-bitcoin"},{"id":600,"name":"El Salvador","type":"country","url_alias":"sv","icon":"https://static.btcmap.org/images/countries/sv.svg","website_url":"https://btcmap.org/country/sv"}]}