{"program":"Georgia","fetchedAt":"2026-07-07T16:02:10.826Z","coord":{"lat":41.7151,"lon":44.8271,"radiusKm":40},"places":[{"id":25,"lat":41.7240904,"lon":44.7458353,"icon":"local_atm","name":"Unnamed","opening_hours":"24/7","created_at":"2023-09-16T13:50:36.522Z","updated_at":"2026-02-21T01:32:56.213Z","verified_at":"2026-02-20T00:00:00Z","osm_id":"node:10015470517","phone":"+995 32 211 41 18","website":"https://bxc.ge/locations/Kazbegi%20Nikora","twitter":"https://twitter.com/bxc_atm","facebook":"https://facebook.com/bxc.ge","instagram":"https://instagram.com/bxc.ge","email":"support@bitxchan.ge","image":"https://bxc.ge/bxc-media/75..jpg"},{"id":499,"lat":41.7307385,"lon":44.7678772,"icon":"hotel","name":"Episode","created_at":"2022-12-07T10:41:33Z","updated_at":"2026-03-01T18:12:31.367Z","verified_at":"2024-03-01T00:00:00Z","osm_id":"node:10103841070","phone":"+995 32 280 00 80","website":"https://www.episodehotels.com","email":"support@episodehotels.com","localized_name":{"en":"Episode","ka":"ეპისოდი"}},{"id":2118,"lat":41.708215,"lon":44.7586476,"icon":"wine_bar","name":"8000 Vintages","opening_hours":"Mo-Su 11:00-01:00","created_at":"2022-12-05T16:21:39Z","updated_at":"2026-01-18T06:32:25.568Z","verified_at":"2026-01-18T00:00:00Z","osm_id":"node:10240445361","boosted_until":"2023-01-06T19:52:25.039Z","localized_name":{"en":"8000 Vintages","ka":"8000 მოსავალი"}},{"id":2133,"lat":41.7095827,"lon":44.7698154,"icon":"computer","name":"iPlus","address":"19 Ilia Chavchavadze Avenue თბილისი 0179","created_at":"2022-12-07T08:51:35Z","updated_at":"2025-11-14T21:32:10.18Z","verified_at":"2024-01-07T00:00:00Z","osm_id":"node:10244043586","website":"https://iplus.com.ge","facebook":"https://facebook.com/iPlusGeo","instagram":"https://instagram.com/iplus.com.ge","email":"info@iphoneplus.ge","localized_name":{"en":"iPlus","ka":"აიპლიუსი"}},{"id":2136,"lat":41.7083438,"lon":44.7798625,"icon":"local_bar","name":"Alco Hall","address":"1 Vasil Petriashvili Street თბილისი","created_at":"2022-12-07T11:41:40Z","updated_at":"2026-05-13T00:05:05.743Z","verified_at":"2025-08-10T00:00:00Z","osm_id":"node:10244377906","website":"https://alco-hall.ge/","email":"info@alco-hall.ge","description":"Cocktail Bar Alco Hall in the middle of Tbilisi City, one of the most prestigious place, full of adventures - Wine Factory N1 Rows of premium spirits glimmering in the soft light. Professional Bartenders Suggesting various tastes and combinations of disti","localized_name":{"en":"Alco Hall","ka":"ალკო ჰოლ"}},{"id":2139,"lat":41.694872,"lon":44.7997594,"icon":"lunch_dining","name":"Big Sam's","address":"2 შოთა რუსთაველის გამზირი თბილისი","created_at":"2022-12-07T12:21:42Z","updated_at":"2026-06-13T20:23:35.097Z","verified_at":"2026-06-11T00:00:00Z","osm_id":"node:10244432437","website":"https://bigsams.ge","facebook":"https://www.facebook.com/bigsamsfoodbar/","instagram":"https://www.instagram.com/bigsams.ge","email":"office@bigsams.ge","localized_name":{"en":"Big Sam's","ka":"ბიგ სემ'ს"}},{"id":2250,"lat":41.686603,"lon":44.828651,"icon":"storefront","name":"Battleground","address":"12a Bochorma st. თბილისი 0144","created_at":"2022-12-25T13:11:35Z","updated_at":"2025-10-11T10:01:59.983Z","verified_at":"2022-12-25T00:00:00Z","osm_id":"node:10285911251","website":"http://battleground.ge","email":"info@globdg.org"},{"id":2332,"lat":41.6942893,"lon":44.800193,"icon":"lunch_dining","name":"Wendy's","created_at":"2023-07-24T11:01:00.974Z","updated_at":"2026-05-13T21:53:18.984Z","verified_at":"2026-05-13T00:00:00Z","osm_id":"node:10295008336","website":"https://wendys.ge","facebook":"https://facebook.com/WendysGeorgia","instagram":"https://instagram.com/wendysgeorgia","localized_name":{"en":"Wendy's","ka":"ვენდი'ს"}},{"id":2435,"lat":41.690593,"lon":44.8404942,"icon":"local_grocery_store","name":"Smart","created_at":"2023-09-08T13:20:43.905Z","updated_at":"2025-09-18T05:36:31.756Z","verified_at":"2023-09-08T00:00:00Z","osm_id":"node:10308615188","website":"http://www.smart.ge","facebook":"https://facebook.com/SmartSupermarkets","instagram":"https://instagram.com/smartsupermarket","email":"hotline@smart.ge","localized_name":{"en":"Smart","ka":"სმარტი","ru":"Смарт"}},{"id":2684,"lat":41.7101847,"lon":44.7657101,"icon":"currency_exchange","name":"Invest Hub","address":"29 ილია ჭავჭავაძის გამზირი","opening_hours":"Mo-Fr 10:30-20:30; Sa-Su 11:30-19:30","created_at":"2023-10-25T14:30:48.471Z","updated_at":"2025-09-18T05:36:33.377Z","verified_at":"2023-10-25T00:00:00Z","osm_id":"node:10574572225"},{"id":3091,"lat":41.683261,"lon":44.8409689,"icon":"local_atm","name":"Unnamed","created_at":"2023-03-10T06:22:44Z","updated_at":"2025-09-18T05:36:33.5Z","verified_at":"2024-05-30T00:00:00Z","osm_id":"node:10724963048","phone":"+995 32 288 07 70","website":"https://cryptomat.com","twitter":"https://twitter.com/Cryptomat_ge","facebook":"https://facebook.com/CryptomatGeo","email":"support@cryptomat.com"},{"id":3293,"lat":41.7481497,"lon":44.7802533,"icon":"local_grocery_store","name":"Smart","created_at":"2023-09-08T13:20:43.992Z","updated_at":"2025-09-18T05:36:33.161Z","verified_at":"2024-05-11T00:00:00Z","osm_id":"node:10794837415","website":"http://www.smart.ge","facebook":"https://facebook.com/SmartSupermarkets","instagram":"https://instagram.com/smartsupermarket","email":"hotline@smart.ge","localized_name":{"ru":"Смарт","en":"Smart","ka":"სმარტი"}},{"id":3434,"lat":41.7487928,"lon":44.786991,"icon":"local_atm","name":"Unnamed","opening_hours":"24/7","created_at":"2023-04-20T06:30:47.278Z","updated_at":"2026-04-04T00:05:15.215Z","verified_at":"2025-04-04T00:00:00Z","osm_id":"node:10826212566","phone":"+995 32 211 41 18","website":"https://bxc.ge","twitter":"https://twitter.com/bxc_atm","facebook":"https://facebook.com/bxc.ge","instagram":"https://instagram.com/bxc.ge","email":"support@bitxchan.ge","image":"https://bxc.ge/bxc-media/Didube_Nikora_1_bitxchange_bitcoin_atm_af97f5aacd.jpg"},{"id":3435,"lat":41.7446519,"lon":44.7926994,"icon":"local_atm","name":"Unnamed","opening_hours":"24/7","created_at":"2023-04-20T06:30:47.28Z","updated_at":"2026-04-30T00:06:16.687Z","verified_at":"2025-07-28T00:00:00Z","osm_id":"node:10826212567","phone":"+995 32 211 41 18","website":"https://bxc.ge/locations/Dadiani_Nikora","twitter":"https://twitter.com/bxc_atm","facebook":"https://facebook.com/bxc.ge","instagram":"https://instagram.com/bxc.ge","email":"support@bitxchan.ge"},{"id":3546,"lat":41.6979649,"lon":44.8046108,"icon":"currency_exchange","name":"Inversus Crypto","address":"1 მტკვარის ქუჩა თბილისი 0105","opening_hours":"Mo-Su 10:00-21:00","created_at":"2023-10-16T00:30:37.222Z","updated_at":"2025-10-06T12:42:25.69Z","verified_at":"2023-10-27T00:00:00Z","osm_id":"node:10862120679","website":"https://inversuscrypto.com/","localized_name":{"en":"Inversus Crypto","ka":"ინვერსუს კრიპტო"}},{"id":5116,"lat":41.7218381,"lon":44.7745372,"icon":"computer","name":"iTechnics","address":"13 Pekini თბილისი","opening_hours":"Mo-Su 10:00-20:30","created_at":"2023-08-30T13:00:51.298Z","updated_at":"2025-10-12T14:02:09.601Z","verified_at":"2023-08-30T00:00:00Z","osm_id":"node:11155941782","website":"https://itechnics.ge","twitter":"https://twitter.com/itechnicgeorgia","facebook":"https://facebook.com/itechnicsgeo","instagram":"https://instagram.com/itechnics_geo","email":"info@itechnics.ge","localized_name":{"en":"iTechnics","ka":"აიტექნიკსი"}},{"id":5254,"lat":41.6881418,"lon":44.827497,"icon":"local_atm","name":"Unnamed","opening_hours":"24/7","created_at":"2023-09-18T10:10:35.159Z","updated_at":"2025-10-10T10:12:04.172Z","verified_at":"2023-09-18T00:00:00Z","osm_id":"node:11199581355","phone":"+995 32 211 41 18","website":"https://bxc.ge","twitter":"https://twitter.com/bxc_atm","facebook":"https://facebook.com/bxc.ge","instagram":"https://instagram.com/bxc.ge","email":"support@bitxchan.ge"},{"id":5269,"lat":41.7902069,"lon":44.8148875,"icon":"local_atm","name":"Unnamed","opening_hours":"24/7","created_at":"2023-09-19T17:40:36.905Z","updated_at":"2025-10-10T10:12:04.177Z","verified_at":"2023-09-21T00:00:00Z","osm_id":"node:11203151904","phone":"+995 32 288 07 70","website":"https://cryptomat.com","twitter":"https://twitter.com/Cryptomat_ge","facebook":"https://facebook.com/CryptomatGeo","email":"support@cryptomat.com"},{"id":5280,"lat":41.7856522,"lon":44.8216734,"icon":"local_atm","name":"Unnamed","opening_hours":"24/7","created_at":"2023-09-21T15:30:42.363Z","updated_at":"2025-10-10T10:12:04.183Z","verified_at":"2023-09-21T00:00:00Z","osm_id":"node:11207997869","phone":"+995 32 211 41 18","website":"https://bxc.ge","twitter":"https://twitter.com/bxc_atm","facebook":"https://facebook.com/bxc.ge","instagram":"https://instagram.com/bxc.ge","email":"support@bitxchan.ge"},{"id":5302,"lat":41.7157885,"lon":44.7925509,"icon":"currency_exchange","name":"Cryptohub","created_at":"2023-09-23T12:50:36.33Z","updated_at":"2026-06-12T00:05:07.949Z","verified_at":"2025-06-12T00:00:00Z","osm_id":"node:11212266402"},{"id":5313,"lat":41.7115707,"lon":44.7567855,"icon":"local_atm","name":"Unnamed","opening_hours":"24/7","created_at":"2023-09-24T15:40:36.611Z","updated_at":"2025-10-10T10:12:04.194Z","verified_at":"2023-09-24T00:00:00Z","osm_id":"node:11215782767","phone":"+995 32 288 07 70","website":"https://cryptomat.com","twitter":"https://twitter.com/Cryptomat_ge","facebook":"https://facebook.com/CryptomatGeo","email":"support@cryptomat.com"},{"id":5314,"lat":41.711699,"lon":44.7565433,"icon":"computer","name":"iTechnics","created_at":"2023-09-24T15:40:36.612Z","updated_at":"2025-09-18T05:36:31.295Z","verified_at":"2023-09-24T00:00:00Z","osm_id":"node:11215782770","website":"https://itechnics.ge","twitter":"https://twitter.com/itechnicgeorgia","facebook":"https://facebook.com/itechnicsgeo","instagram":"https://instagram.com/itechnics_geo","email":"info@itechnics.ge","localized_name":{"ka":"აიტექნიკსი","en":"iTechnics"}},{"id":5315,"lat":41.7114351,"lon":44.7571496,"icon":"local_atm","name":"Unnamed","opening_hours":"24/7","created_at":"2023-09-24T16:10:40.587Z","updated_at":"2025-09-18T05:36:31.295Z","verified_at":"2023-09-24T00:00:00Z","osm_id":"node:11215823087","phone":"+995 32 288 07 70","website":"https://cryptomat.com","twitter":"https://twitter.com/Cryptomat_ge","facebook":"https://facebook.com/CryptomatGeo","email":"support@cryptomat.com"},{"id":5377,"lat":41.78708,"lon":44.7777592,"icon":"lunch_dining","name":"Wendy's","opening_hours":"Mo-Su 08:00-00:00","created_at":"2023-10-04T15:20:49.57Z","updated_at":"2026-02-27T09:33:29.478Z","verified_at":"2026-02-15T00:00:00Z","osm_id":"node:11238167958","website":"https://wendys.ge","facebook":"https://facebook.com/WendysGeorgia","instagram":"https://instagram.com/wendysgeorgia","localized_name":{"en":"Wendy's","ka":"ვენდი'ს"}},{"id":5436,"lat":41.7258107,"lon":44.7694609,"icon":"currency_exchange","name":"Crypto Store","created_at":"2023-10-12T16:40:33.96Z","updated_at":"2025-09-18T05:36:33.392Z","verified_at":"2023-10-12T00:00:00Z","osm_id":"node:11257958746"},{"id":5464,"lat":41.6900449,"lon":44.808465,"icon":"local_atm","name":"Unnamed","opening_hours":"24/7","created_at":"2023-10-14T12:50:42.315Z","updated_at":"2025-09-18T05:36:31.357Z","verified_at":"2023-10-14T00:00:00Z","osm_id":"node:11262545432","phone":"+995 32 211 41 18","website":"https://bxc.ge","twitter":"https://twitter.com/bxc_atm","facebook":"https://facebook.com/bxc.ge","instagram":"https://instagram.com/bxc.ge","email":"support@bitxchan.ge"},{"id":5500,"lat":41.7229976,"lon":44.7390029,"icon":"currency_exchange","name":"BitSwap","created_at":"2023-10-18T13:30:52.351Z","updated_at":"2025-09-18T05:36:33.393Z","verified_at":"2023-10-18T00:00:00Z","osm_id":"node:11271753782"},{"id":5563,"lat":41.697118,"lon":44.8034584,"icon":"currency_exchange","name":"Unnamed","opening_hours":"24/7","created_at":"2023-10-20T17:20:37.832Z","updated_at":"2026-05-03T15:43:41.476Z","verified_at":"2026-04-26T00:00:00Z","osm_id":"node:11277903831","phone":"+995 32 211 41 18","website":"https://bxc.ge","twitter":"https://twitter.com/bxc_atm","facebook":"https://facebook.com/bxc.ge","instagram":"https://instagram.com/bxc.ge","email":"support@bitxchan.ge"},{"id":5884,"lat":41.7088415,"lon":44.7698783,"icon":"computer","name":"iTechnics","address":"34 Chavchavadze თბილისი","opening_hours":"Mo-Su 10:00-20:30","created_at":"2023-08-30T13:00:50.028Z","updated_at":"2025-10-12T14:02:08.596Z","verified_at":"2024-01-07T00:00:00Z","osm_id":"node:1690066810","website":"https://itechnics.ge","twitter":"https://twitter.com/itechnicgeorgia","facebook":"https://facebook.com/itechnicsgeo","instagram":"https://instagram.com/itechnics_geo","email":"info@itechnics.ge","localized_name":{"en":"iTechnics","ka":"აიტექნიკსი"}},{"id":9620,"lat":41.7114138,"lon":44.7577522,"icon":"lunch_dining","name":"Wendy's","opening_hours":"09:00-24:00","created_at":"2022-12-07T12:11:42Z","updated_at":"2025-10-06T13:02:40.374Z","verified_at":"2022-12-07T00:00:00Z","osm_id":"node:2937229720","website":"https://wendys.ge","facebook":"https://facebook.com/WendysGeorgia","instagram":"https://instagram.com/wendysgeorgia","localized_name":{"en":"Wendy's","ka":"ვენდი'ს"}},{"id":11430,"lat":41.7176263,"lon":44.77754,"icon":"lunch_dining","name":"Wendy's","opening_hours":"08:00-24:00","created_at":"2022-12-07T12:01:33Z","updated_at":"2025-10-06T13:02:40.449Z","verified_at":"2024-05-21T00:00:00Z","osm_id":"node:4040416943","website":"https://wendys.ge","facebook":"https://facebook.com/WendysGeorgia","instagram":"https://instagram.com/wendysgeorgia","localized_name":{"en":"Wendy's","ka":"ვენდი'ს"}},{"id":11596,"lat":41.7943692,"lon":44.7709578,"icon":"lunch_dining","name":"Wendy's","address":"დავით ახმაშენებლის ხეივანი","opening_hours":"24/7","created_at":"2023-07-24T11:01:00.473Z","updated_at":"2026-05-09T00:05:06.229Z","verified_at":"2025-05-09T00:00:00Z","osm_id":"node:4354214322","website":"https://wendys.ge","facebook":"https://facebook.com/WendysGeorgia","instagram":"https://instagram.com/wendysgeorgia","localized_name":{"en":"Wendy's","ka":"ვენდი'ს"}},{"id":11620,"lat":41.7215665,"lon":44.7747768,"icon":"computer","name":"iPlus","address":"11 პეკინის გამზირი თბილისი","created_at":"2022-12-07T08:51:35Z","updated_at":"2025-11-14T21:32:09.763Z","verified_at":"2025-10-26T00:00:00Z","osm_id":"node:4394816598","website":"https://iplus.com.ge","facebook":"https://facebook.com/iPlusGeo","instagram":"https://instagram.com/iplus.com.ge","email":"info@iphoneplus.ge","localized_name":{"en":"iPlus","ka":"აიპლიუსი"}},{"id":12840,"lat":41.6941082,"lon":44.8006676,"icon":"currency_exchange","name":"Crypto Conexus","address":"4 თავისუფლების მოედანი","opening_hours":"Mo-Fr 10:00-21:00; Sa-Su 11:00-20:00","created_at":"2023-09-17T17:20:33.121Z","updated_at":"2025-12-14T19:32:03.712Z","verified_at":"2023-11-25T00:00:00Z","osm_id":"node:5916078485"},{"id":13061,"lat":41.7228889,"lon":44.7727451,"icon":"currency_exchange","name":"Sher Company","created_at":"2023-10-12T16:40:33.269Z","updated_at":"2025-09-18T05:36:33.41Z","verified_at":"2023-10-12T00:00:00Z","osm_id":"node:6248848934","localized_name":{"en":"Sher Company","ka":"შერი კომპანი"}},{"id":13201,"lat":41.6896699,"lon":44.8965613,"icon":"lunch_dining","name":"Wendy's","address":"2 AleKsandre Tvalchrelidze St თბილისი","created_at":"2022-12-07T12:31:37Z","updated_at":"2025-10-19T12:42:29.973Z","verified_at":"2025-10-19T00:00:00Z","osm_id":"node:6464331485","website":"https://wendys.ge","email":"info@wendys.ge","localized_name":{"en":"Wendy's","ka":"ვენდი'ს"}},{"id":13209,"lat":41.7209125,"lon":44.7856418,"icon":"local_grocery_store","name":"Smart","created_at":"2023-09-08T13:20:43.58Z","updated_at":"2026-05-28T00:05:27.487Z","verified_at":"2025-08-25T00:00:00Z","osm_id":"node:6470465196","website":"http://www.smart.ge","facebook":"https://facebook.com/SmartSupermarkets","instagram":"https://instagram.com/smartsupermarket","email":"hotline@smart.ge","localized_name":{"en":"Smart","ka":"სმარტი","ru":"Смарт"}},{"id":13515,"lat":41.7019829,"lon":44.7966606,"icon":"wine_bar","name":"8000 vintages","address":"27 რევაზ თაბუკაშვილის ქუჩა თბილისი 0108","opening_hours":"Mo-Su 11:00-01:00","comments":1,"created_at":"2022-12-05T16:41:39Z","updated_at":"2026-06-13T00:05:07.228Z","verified_at":"2025-06-13T00:00:00Z","osm_id":"node:7101668986","website":"https://8000vintages.ge","localized_name":{"en":"8000 vintages","ka":"8000 მოსავალი"}},{"id":13691,"lat":41.7218056,"lon":44.7695758,"icon":"local_atm","name":"Unnamed","created_at":"2022-09-25T08:45:08Z","updated_at":"2025-10-10T10:12:03.642Z","verified_at":"2023-09-07T00:00:00Z","osm_id":"node:7829584099","phone":"+995 32 288 07 70","website":"https://cryptomat.com","twitter":"https://twitter.com/Cryptomat_ge","facebook":"https://facebook.com/CryptomatGeo","email":"support@cryptomat.com"},{"id":14437,"lat":41.7139976,"lon":44.7578626,"icon":"local_atm","name":"Unnamed","created_at":"2023-09-07T22:30:34.793Z","updated_at":"2025-09-18T05:36:31.268Z","verified_at":"2023-09-07T00:00:00Z","osm_id":"node:9587755153","phone":"+995 32 211 41 18","website":"https://bxc.ge","twitter":"https://twitter.com/bxc_atm","facebook":"https://facebook.com/bxc.ge","instagram":"https://instagram.com/bxc.ge","email":"support@bitxchan.ge"},{"id":14440,"lat":41.7092683,"lon":44.7338754,"icon":"wine_bar","name":"8000 Vintages","address":"15 Tskneti Hwy თბილისი 0162","created_at":"2022-12-05T16:41:40Z","updated_at":"2025-09-18T05:36:30.907Z","verified_at":"2022-12-05T00:00:00Z","osm_id":"node:9608331718","localized_name":{"ka":"8000 მოსავალი","en":"8000 Vintages"}},{"id":14527,"lat":41.7212836,"lon":44.764702,"icon":"wine_bar","name":"8000 Vintages","address":"26 Sulkhan Tsintsadze თბილისი 0160","opening_hours":"11:00-01:00","created_at":"2022-12-05T16:31:37Z","updated_at":"2025-09-18T05:36:31.34Z","verified_at":"2023-10-10T00:00:00Z","osm_id":"node:9834241304","localized_name":{"en":"8000 Vintages","ka":"8000 მოსავალი"}},{"id":14577,"lat":41.7106861,"lon":44.8037239,"icon":"local_atm","name":"Unnamed","created_at":"2022-09-25T08:45:08Z","updated_at":"2025-09-18T05:36:33.437Z","verified_at":"2023-11-19T00:00:00Z","osm_id":"node:9923598397","phone":"+995 32 211 41 18","website":"https://bxc.ge","twitter":"https://twitter.com/bxc_atm","facebook":"https://facebook.com/bxc.ge","instagram":"https://instagram.com/bxc.ge","email":"support@bitxchan.ge"},{"id":14821,"lat":41.70468135,"lon":44.7940308,"icon":"lunch_dining","name":"Wendy's","address":"78 ზვიად გამსახურდიას სანაპირო","created_at":"2023-07-24T11:01:01.416Z","updated_at":"2026-04-14T00:05:11.616Z","verified_at":"2025-04-14T00:00:00Z","osm_id":"way:1156808736","website":"https://wendys.ge","facebook":"https://facebook.com/WendysGeorgia","instagram":"https://instagram.com/wendysgeorgia","localized_name":{"en":"Wendy's","ka":"ვენდი'ს"}},{"id":14822,"lat":41.726719349999996,"lon":44.756401,"icon":"local_grocery_store","name":"Smart","created_at":"2023-09-08T13:20:44.397Z","updated_at":"2026-03-27T15:24:10.329Z","verified_at":"2023-08-19T00:00:00Z","osm_id":"way:1158743122","website":"http://www.smart.ge","facebook":"https://facebook.com/SmartSupermarkets","instagram":"https://instagram.com/smartsupermarket","email":"hotline@smart.ge","localized_name":{"en":"Smart","ka":"სმარტი","ru":"Смарт"}},{"id":15405,"lat":41.79413125,"lon":44.77097645,"icon":"local_grocery_store","name":"Smart","opening_hours":"24/7","created_at":"2023-09-08T13:20:44.304Z","updated_at":"2025-11-25T06:21:30.047Z","verified_at":"2025-11-25T00:00:00Z","osm_id":"way:343571843","website":"http://www.smart.ge","facebook":"https://facebook.com/SmartSupermarkets","instagram":"https://instagram.com/smartsupermarket","email":"hotline@smart.ge","localized_name":{"en":"Smart","ka":"სმარტი","ru":"Смарт"}},{"id":15798,"lat":41.715032,"lon":44.745487999999995,"icon":"local_grocery_store","name":"Smart","address":"14ბ მიხეილ თამარაშვილის გამზირი","created_at":"2023-09-08T13:20:44.353Z","updated_at":"2026-06-12T22:33:59.13Z","verified_at":"2026-06-13T00:00:00Z","osm_id":"way:598229694","website":"http://www.smart.ge","facebook":"https://facebook.com/SmartSupermarkets","instagram":"https://instagram.com/smartsupermarket","email":"hotline@smart.ge","localized_name":{"en":"Smart","ka":"სმარტი","ru":"Смарт"}},{"id":15998,"lat":41.692606850000004,"lon":44.967524,"icon":"local_grocery_store","name":"Smart","address":"კახეთის გზატკეცილი თბილისი","opening_hours":"24/7","created_at":"2023-09-08T13:20:44.365Z","updated_at":"2025-10-08T15:52:14.316Z","verified_at":"2024-03-24T00:00:00Z","osm_id":"way:696077878","website":"http://www.smart.ge","facebook":"https://facebook.com/SmartSupermarkets","instagram":"https://instagram.com/smartsupermarket","email":"hotline@smart.ge","localized_name":{"en":"Smart","ka":"სმარტი","ru":"Смарт"}}],"areas":[{"id":765,"name":"Bitcoin Movement Georgia","type":"community","url_alias":"bitcoin-movement-georgia","icon":"https://static.btcmap.org/images/communities/bitcoin-movement-georgia.png","website_url":"https://btcmap.org/community/bitcoin-movement-georgia"},{"id":366,"name":"Georgia","type":"country","url_alias":"ge","icon":"https://static.btcmap.org/images/countries/ge.svg","website_url":"https://btcmap.org/country/ge"}]}