{"program":"Ireland","fetchedAt":"2026-07-07T16:02:21.415Z","coord":{"lat":53.3498,"lon":-6.2603,"radiusKm":45},"places":[{"id":2674,"lat":53.3800762,"lon":-6.1885374,"icon":"local_cafe","name":"Unnamed","address":"148 Harmonstown Road Dublin","opening_hours":"Mo-Fr 07:00-14:30; Sa-Su 09:00-14:30","comments":1,"created_at":"2023-01-21T18:02:57Z","updated_at":"2025-09-18T05:36:32.843Z","verified_at":"2023-08-01T00:00:00Z","osm_id":"node:10573066626","boosted_until":"2024-10-13T08:54:26.736877209Z"},{"id":2678,"lat":53.380001,"lon":-6.1884237,"icon":"fitness_center","name":"GymX","address":"148 Harmonstown Road Dublin","opening_hours":"Mo-Fr 06:00-22:00, Sa-Su 09:00-16:00","created_at":"2023-01-22T15:02:56Z","updated_at":"2025-09-18T05:36:30.719Z","verified_at":"2023-01-22T00:00:00Z","osm_id":"node:10574393339","phone":"+353 1 8312651","website":"https://gymx.ie/","email":"info@gymx.ie","boosted_until":"2023-05-22T16:12:57.872Z"},{"id":2683,"lat":53.3800352,"lon":-6.1884483,"icon":"fitness_center","name":"GymX Personal Trainers","address":"148 Harmonstown Road Dublin","opening_hours":"Mo-Fr 06:00-22:00, Sa-Su 09:00-16:00","created_at":"2023-01-22T15:02:56Z","updated_at":"2025-09-18T05:36:30.72Z","verified_at":"2023-01-22T00:00:00Z","osm_id":"node:10574498201","website":"https://gymx.ie/trainers/","email":"gary@dublinbitcoiners.com","boosted_until":"2023-05-22T16:14:37.04Z"},{"id":2690,"lat":53.3800151,"lon":-6.1885159,"icon":"currency_exchange","name":"Dublin Bitcoiners","address":"148 Harmonstown Road Dublin","created_at":"2023-01-23T09:53:12Z","updated_at":"2025-09-18T05:36:33.377Z","verified_at":"2024-01-06T00:00:00Z","osm_id":"node:10576172084","website":"https://www.dublinbitcoiners.com"},{"id":2721,"lat":53.3855855,"lon":-6.0644318,"icon":"medical_services","name":"NW Athletic Therapy","address":"Suite 6 Main Street Howth D13 N8K3","created_at":"2023-01-25T21:03:53Z","updated_at":"2025-09-18T05:36:30.726Z","verified_at":"2023-01-25T00:00:00Z","osm_id":"node:10582595523","phone":"+353 86 307 3926","website":"https://www.neilwalshathletictherapy.com/"},{"id":2777,"lat":53.3356604,"lon":-6.291944,"icon":"design_services","name":"Jamsmash","address":"D08 T2X8","created_at":"2023-01-30T18:03:54Z","updated_at":"2025-09-18T05:36:30.732Z","verified_at":"2023-01-30T00:00:00Z","osm_id":"node:10594629025","website":"https://www.jamsmash.ie/","email":"jamsmashstudio@gmail.com"},{"id":2900,"lat":53.3882138,"lon":-6.154403,"icon":"content_cut","name":"Xophers Barber Shop","address":"Thornville Road Dublin","created_at":"2023-02-07T19:03:47Z","updated_at":"2025-09-18T05:36:30.749Z","verified_at":"2023-02-07T00:00:00Z","osm_id":"node:10616285873"},{"id":2950,"lat":53.2250531,"lon":-6.3396252,"icon":"photo_camera","name":"SeeBig 360 Degree Photographic Services","address":"Castlekelly Road Dublin D24 EC93","created_at":"2023-02-15T09:03:19Z","updated_at":"2026-04-05T13:53:46.267Z","verified_at":"2026-04-05T00:00:00Z","osm_id":"node:10660796183","phone":"+353 86 267 8470","website":"https://seebig.ie/"},{"id":3172,"lat":53.3974915,"lon":-6.1903827,"icon":"sports_martial_arts","name":"Northside BJJ","address":"Unit 2C Newtown Industrial Estate Dublin","created_at":"2023-03-21T22:03:24.871Z","updated_at":"2025-09-18T05:36:30.866Z","verified_at":"2023-03-21T00:00:00Z","osm_id":"node:10751764879"},{"id":13619,"lat":53.3357667,"lon":-6.2477778,"icon":"restaurant","name":"Chai Yo","address":"100 Lower Baggot Street Dublin D2","opening_hours":"Mo-We 17:30-23:00; Th-Fr 12:30-15:00, 17:30-00:00; Sa 15:00-00:30; Su 15:30-22:00","comments":1,"created_at":"2023-02-01T15:43:28Z","updated_at":"2026-04-26T00:05:06.259Z","verified_at":"2025-07-24T00:00:00Z","osm_id":"node:7593633416","phone":"+353 1 676 7652","website":"https://www.chaiyo.ie/","email":"chaiyodublin@yahoo.ie"},{"id":14531,"lat":53.3306677,"lon":-6.2448432,"icon":"balance","name":"Cosgrove Gaynard Solicitors","address":"Waterloo Road Dublin D04N935","created_at":"2023-01-09T21:41:32Z","updated_at":"2026-05-20T06:43:48.934Z","verified_at":"2023-01-09T00:00:00Z","osm_id":"node:9842837244","phone":"+353 1 234 0044","website":"https://www.cgsolicitors.ie/","twitter":"https://twitter.com/CosgroveGaynard","facebook":"https://www.facebook.com/cosgrovegaynard"},{"id":17563,"lat":53.1718617,"lon":-6.8098234,"icon":"content_cut","name":"Fux Barber Shop","address":"1 Beechmount House, Langton Cross Newbridge W12 DH24","created_at":"2024-01-22T19:51:11.697Z","updated_at":"2026-04-18T00:05:12.286Z","verified_at":"2025-07-16T00:00:00Z","osm_id":"node:11517020121"},{"id":21760,"lat":53.335452700000005,"lon":-6.2537439500000005,"icon":"attach_money","name":"CryptoCount","address":"37 Fitzwilliam Square West Dublin D02 NX53","opening_hours":"Mo-Fr 09:00-18:00","created_at":"2024-11-19T11:31:57.637Z","updated_at":"2026-05-15T14:24:09.726Z","verified_at":"2024-11-19T00:00:00Z","osm_id":"way:249355407","phone":"+353894899462","website":"https://www.cryptocount.ie/"},{"id":26456,"lat":52.9953954,"lon":-6.0873498,"icon":"storefront","name":"Noel Dempsey Kitchens & Interiors","address":"1 Charvey Business Park, Milltown North Rathnew A67 R990","created_at":"2025-06-10T19:02:10.219Z","updated_at":"2026-05-20T06:43:54.398Z","verified_at":null,"osm_id":"node:12903196888","phone":"+353 404 64548","website":"https://www.noeldempsey.com/showroom#kitchen-showrooms-dublin"},{"id":26476,"lat":53.3353261,"lon":-6.2654222,"icon":"toys","name":"Trampolines Ireland","address":"77 Lower Camden Street Dublin D 02 XE 80","created_at":"2025-06-11T19:41:53.062Z","updated_at":"2026-06-11T00:05:08.501Z","verified_at":"2025-06-11T00:00:00Z","osm_id":"node:12907891950","phone":"+353 1 960 1641","website":"https://trampolinesireland.com/","email":"Trampolines@esi-ltd.ie"},{"id":36381,"lat":53.3305174,"lon":-6.2250979,"icon":"attach_money","name":"Ciarán Doyle Accountants","address":"48/56 Serpentine Avenue Dublin","created_at":"2026-03-21T09:34:10.618Z","updated_at":"2026-05-20T06:43:58.989Z","verified_at":"2023-09-28T00:00:00Z","osm_id":"node:13666403502","phone":"+353 89 489 9462"}],"areas":[{"id":235,"name":"Dublin Bitcoiners","type":"community","url_alias":"dublin-bitcoiners","icon":"https://static.btcmap.org/images/communities/dublin-bitcoiners.jpg","website_url":"https://btcmap.org/community/dublin-bitcoiners"},{"id":397,"name":"Ireland","type":"country","url_alias":"ie","icon":"https://static.btcmap.org/images/countries/ie.svg","website_url":"https://btcmap.org/country/ie"}]}