{"program":"Malta","fetchedAt":"2026-07-07T16:02:10.028Z","coord":{"lat":35.8989,"lon":14.5146,"radiusKm":20},"places":[{"id":2357,"lat":35.9036742,"lon":14.4875202,"icon":"fitness_center","name":"My Personal Trainer Malta","address":"Triq Maria Teresa Spinelli Il-Gżira GZR 1711","created_at":"2023-01-02T18:01:33Z","updated_at":"2026-03-08T00:05:08.268Z","verified_at":"2025-03-08T00:00:00Z","osm_id":"node:10300874313","website":"https://www.mypersonaltrainermalta.com/","email":"info@myptmalta.com"},{"id":3849,"lat":35.9146866,"lon":14.4961673,"icon":"content_cut","name":"Plan B Balluta Bay","address":"272 Tower Road Tas-Sliema SLM 1600","created_at":"2023-05-25T12:20:53.467Z","updated_at":"2026-04-17T00:05:16.263Z","verified_at":"2025-07-15T00:00:00Z","osm_id":"node:10926232059","website":"https://www.planbbarber.com/","facebook":"https://www.facebook.com/profile.php?id=100090607183294","email":"info@planbbarber.com"},{"id":13541,"lat":35.9280941,"lon":14.4905116,"icon":"restaurant","name":"Caviar and Bull","address":"Triq Ix-Xatt ta' San Ġorġ San Ġiljan STJ 3301","created_at":"2022-11-24T20:21:54Z","updated_at":"2026-06-04T00:05:13.953Z","verified_at":"2025-09-01T00:00:00Z","osm_id":"node:7190945438","website":"https://caviarandbull.com.mt/","email":"experience@caviarandbull.com"},{"id":14213,"lat":35.9280558,"lon":14.4905783,"icon":"restaurant","name":"Sole by Tarragon","address":"San Ġiljan STJ 3301","opening_hours":"Mo-Su 18:30-23:00; Su 12:00-16:00","created_at":"2022-11-24T20:41:39Z","updated_at":"2026-06-04T00:05:13.782Z","verified_at":"2025-09-01T00:00:00Z","osm_id":"node:9155469717","website":"https://solebytarragon.com/","email":"experience@solebytarragon.com"},{"id":18359,"lat":35.9277705,"lon":14.4899356,"icon":"restaurant","name":"Don Royale","address":"Ix-Xatt ta’ San Gorg San Giljan, San Ġiljan STJ3301","opening_hours":"Mo-Sa 17:00-23:00; Su 12:00-15:30,17:00-23:00","created_at":"2024-03-17T17:31:49.106Z","updated_at":"2026-06-04T00:05:13.78Z","verified_at":"2025-09-01T00:00:00Z","osm_id":"node:11704472866","website":"https://donroyalerestaurant.com"},{"id":18380,"lat":35.9079663,"lon":14.4997513,"icon":"content_cut","name":"Plan B The Strand","address":"110 Triq Ix-Xatt Tas-Sliema SLM 1020","created_at":"2024-03-19T00:41:18.14Z","updated_at":"2026-05-26T00:05:16.529Z","verified_at":"2025-08-23T00:00:00Z","osm_id":"node:11742868500","website":"https://www.planbbarber.com/","facebook":"https://www.facebook.com/profile.php?id=100090607183294","email":"info@planbbarber.com"},{"id":19777,"lat":35.9009144,"lon":14.4892857,"icon":"sports_bar","name":"The Hatter","address":"34 Triq Gerry Zammit GZR 1660","opening_hours":"Mo 16:00-24:00; Tu-Fr 16:00-01:00; Sa 15:00-01:00; Su 15:00-24:00","comments":1,"created_at":"2024-06-13T13:31:35.161Z","updated_at":"2026-01-25T17:52:51.703Z","verified_at":"2026-01-22T00:00:00Z","osm_id":"node:5641889022","phone":"+356 2134 2769"},{"id":19987,"lat":35.952104,"lon":14.410731,"icon":"liquor","name":"Crest Bottle Shop","address":"Triq is-Sajf Bugibba","created_at":"2024-07-03T17:51:16.237Z","updated_at":"2026-03-31T16:13:02.375Z","verified_at":"2026-03-31T00:00:00Z","osm_id":"node:12031697906","phone":"+356 2157 3688","website":"https://crestbottleshop.com/","email":"tania@crestbottleshop.com","description":"An esteemed bottle shop in Bugibba selling any and all sorts of wine, beers, spirits and tobacco."},{"id":20634,"lat":35.9565582,"lon":14.3652009,"icon":"local_cafe","name":"Freds Pies & More","address":"66 Triq il-Kbira Mellieħa MLH 2313","opening_hours":"Mo-Su 09:00-22:00","created_at":"2024-08-26T13:21:45.529Z","updated_at":"2026-05-11T00:05:04.566Z","verified_at":"2025-08-08T00:00:00Z","osm_id":"node:12137711089","phone":"+356 2152 3593","facebook":"https://www.facebook.com/profile.php?id=100066829402223"},{"id":21776,"lat":35.9221594,"lon":14.487612,"icon":"business","name":"Bitsuite","address":"Triq Sant' Andrija San Ġiljan STJ 9023","opening_hours":"Mo-Fr 08:00-16:00","created_at":"2024-11-20T12:31:35.576Z","updated_at":"2026-03-12T00:05:08.905Z","verified_at":"2025-03-12T00:00:00Z","osm_id":"node:12358033292","website":"https://bitsuite.co/"},{"id":22559,"lat":35.9097484,"lon":14.5065447,"icon":"photo_camera","name":"Dickens","address":"Triq Bisazza Tas-Sliema SLM 1640","opening_hours":"Mo-Su 09:30-19:30","created_at":"2024-12-09T19:02:12.883Z","updated_at":"2026-03-09T00:05:14.135Z","verified_at":"2025-03-09T00:00:00Z","osm_id":"node:12399759098","phone":"+356 21 333 562","website":"https://www.dickens.com.mt/","email":"info@dickens.com.mt"},{"id":22566,"lat":35.895804,"lon":14.5043323,"icon":"restaurant","name":"Dinner in the Sky","address":"Belt is-Sebh Floriana","created_at":"2024-12-10T09:51:44.334Z","updated_at":"2026-03-08T00:05:08.273Z","verified_at":"2025-03-08T00:00:00Z","osm_id":"node:7194831185","website":"https://dinnerintheskymalta.com/","email":"reservations@dinnerintheskymalta.com","description":"An extraordinary aerial culinary experience in the heart of Malta."},{"id":24331,"lat":35.9232104,"lon":14.488888,"icon":"content_cut","name":"Plan B Mercury Tower","address":"Triq Elija Zammit San Ġiljan","created_at":"2025-03-08T23:31:31.196Z","updated_at":"2026-06-04T00:05:14.118Z","verified_at":"2025-09-01T00:00:00Z","osm_id":"node:12646464761","website":"https://www.planbbarber.com/","facebook":"https://www.facebook.com/profile.php?id=100090607183294","email":"info@planbbarber.com"},{"id":24332,"lat":35.8817997,"lon":14.3981773,"icon":"local_cafe","name":"Coffee Circus Smile","address":"9 Triq Bir Ir-Riebu Ir-Rabat","opening_hours":"Mo-Su 08:30-21:00","created_at":"2025-03-09T00:11:28.812Z","updated_at":"2026-03-19T19:33:07.411Z","verified_at":"2026-03-19T00:00:00Z","osm_id":"node:12646676030","website":"https://www.coffeecircus.com.mt/"},{"id":24333,"lat":35.8640792,"lon":14.5618335,"icon":"local_cafe","name":"Coffee Circus Connections / Marsaskala","address":"29 Triq ix-Xatt Wied il-Għajn","opening_hours":"Mo-Su 07:30-23:00","created_at":"2025-03-09T00:31:33.245Z","updated_at":"2026-03-22T18:53:17.195Z","verified_at":"2026-03-22T00:00:00Z","osm_id":"node:12646700814","website":"https://www.coffeecircus.com.mt/"},{"id":28286,"lat":35.9507086,"lon":14.4102524,"icon":"spa","name":"Sisi Therapy Massage Salon","address":"16 Triq Sant' Antnin San Pawl il-Baħar","created_at":"2025-08-09T00:21:58Z","updated_at":"2026-02-24T19:53:27.167Z","verified_at":null,"osm_id":"node:13058928906"},{"id":29050,"lat":35.9503895,"lon":14.4120463,"icon":"local_bar","name":"Gemini Bar","address":"Triq ix-Xitwa Bugibba SPB 2586","opening_hours":"Mo-Su 06:00-23:00","created_at":"2025-10-03T08:02:19.093Z","updated_at":"2026-03-31T16:23:16.989Z","verified_at":"2026-03-31T00:00:00Z","osm_id":"node:13190155371","phone":"+356 7988 6681","email":"geminibugibba@gmail.com"}],"areas":[{"id":489,"name":"Malta","type":"country","url_alias":"mt","icon":"https://static.btcmap.org/images/countries/mt.svg","website_url":"https://btcmap.org/country/mt"},{"id":86,"name":"Bitcoin Club Malta","type":"community","url_alias":"bitcoin-club-malta","icon":"https://static.btcmap.org/images/areas/86.png","website_url":"https://btcmap.org/community/bitcoin-club-malta"}]}